timestamp(unix),attitude_roll(radians),attitude_pitch(radians),attitude_yaw(radians),rotation_rate_x(radians/s),rotation_rate_y(radians/s),rotation_rate_z(radians/s),gravity_x(G),gravity_y(G),gravity_z(G),user_acc_x(G),user_acc_y(G),user_acc_z(G),magnetic_field_x(microteslas),magnetic_field_y(microteslas),magnetic_field_z(microteslas),latitude(degree),longitude(degree),altitude(meter),speed(m/s),course(degree),timestamp(unix),User Mark
,,,,,,,,,,,,,,,,6.247060,-75.568949,1528.282871,0.250000,217.617188,1527543003.993663,
,,,,,,,,,,,,,,,,6.247054,-75.568955,1515.995640,0.230000,254.882812,1527543004.993632,
1527543005.310903,0.214778,0.175838,1.720194,0.044690,0.148101,-0.042000,0.209845,-0.174933,-0.961958,-0.010931,0.001212,0.028440,-17.877747,-51.703346,-16.780071,,,,,,,
,,,,,,,,,,,,,,,,6.247053,-75.568954,1512.011997,0.180000,270.351562,1527543005.993603,
1527543006.311303,0.173912,0.124741,1.731464,-0.052527,-0.031217,-0.055623,0.171692,-0.124418,-0.977262,-0.000671,0.005476,-0.004900,-22.170624,-54.096596,-21.706005,,,,,,,
,,,,,,,,,,,,,,,,6.247053,-75.568954,1512.832310,0.000000,271.054688,1527543006.993573,
1527543007.311655,0.146855,0.173777,2.057495,0.170721,0.478638,1.357547,0.144124,-0.172904,-0.974337,-0.010304,0.061789,-0.033277,-36.787369,-44.257378,-20.904095,,,,,,,
,,,,,,,,,,,,,,,,6.247053,-75.568954,1513.117832,0.000000,277.734375,1527543007.993543,
1527543008.312038,0.133682,0.094681,2.398285,-0.079099,-0.019420,-0.056305,0.132688,-0.094539,-0.986639,-0.036298,-0.002049,-0.025202,-55.290619,-33.508476,-31.697689,,,,,,,
,,,,,,,,,,,,,,,,6.247046,-75.568911,1510.618931,0.170000,262.968750,1527543008.993513,
1527543009.312411,0.118752,0.070013,2.354517,-0.024295,-0.008027,-0.073159,0.118183,-0.069956,-0.990525,0.008892,-0.010916,0.025116,-49.644836,-30.964958,-30.005856,,,,,,,
,,,,,,,,,,,,,,,,6.247046,-75.568911,1509.781284,0.000000,222.890625,1527543009.993483,
1527543010.312822,0.139616,0.057053,2.331909,-0.087066,-0.007600,-0.035170,0.138936,-0.057022,-0.988658,0.021556,-0.014694,-0.024297,-51.854050,-35.086937,-31.650692,,,,,,,
,,,,,,,,,,,,,,,,6.247046,-75.568911,1509.078037,0.000000,169.101562,1527543010.993454,
1527543011.313195,0.157941,0.013368,2.313698,0.253752,0.098574,-0.223698,0.157272,-0.013368,-0.987465,-0.046294,0.123033,0.004845,-56.308594,-38.904564,-37.479061,,,,,,,
,,,,,,,,,,,,,,,,6.247038,-75.568871,1509.441074,0.190000,128.320312,1527543011.993423,
1527543012.313563,0.282292,0.263495,1.771875,0.212752,-0.422476,0.348347,0.268943,-0.260456,-0.927271,0.010186,-0.026730,0.059443,-23.434540,-61.446785,-18.790539,,,,,,,
,,,,,,,,,,,,,,,,6.247038,-75.568869,1509.995029,0.190000,130.781250,1527543012.993393,
1527543013.313933,0.151160,0.218338,1.698364,0.024430,0.124989,-0.002901,0.147010,-0.216608,-0.965126,0.032692,-0.008490,-0.010917,-10.609680,-43.388222,-11.560162,,,,,,,
,,,,,,,,,,,,,,,,6.247035,-75.568862,1510.269810,0.350000,120.937500,1527543013.993363,
1527543014.314325,0.200383,0.213960,1.685695,-0.062056,0.013488,-0.051706,0.194506,-0.212331,-0.957644,0.023969,0.002630,0.016986,-6.828659,-39.642815,-9.927258,,,,,,,
,,,,,,,,,,,,,,,,6.247031,-75.568854,1509.697910,1.650000,110.390625,1527543014.993334,
1527543015.314697,0.274547,0.176886,1.745446,-0.185159,0.123625,-0.014438,0.266881,-0.175965,-0.947529,0.064021,-0.077286,0.024692,-3.617920,-32.520836,-10.306927,,,,,,,
,,,,,,,,,,,,,,,,6.247029,-75.568850,1509.629185,1.650000,109.335938,1527543015.993305,
1527543016.315053,0.416115,0.286960,1.779450,-0.105247,0.289230,0.007345,0.387681,-0.283038,-0.877264,0.008941,0.003680,0.008825,-5.503952,-33.571053,-6.096355,,,,,,,
,,,,,,,,,,,,,,,,6.247023,-75.568850,1507.026890,1.460000,108.984375,1527543016.993275,
1527543017.315428,0.366100,0.318217,1.888415,-0.209089,-0.070009,0.144713,0.340004,-0.312873,-0.886852,0.023598,-0.021340,0.000942,-8.504013,-33.568138,-5.925350,,,,,,,
,,,,,,,,,,,,,,,,6.247013,-75.568848,1506.068760,1.350000,114.960938,1527543017.993245,
1527543018.315836,0.365982,0.298880,1.962834,-0.046911,0.079082,0.114075,0.342001,-0.294450,-0.892375,-0.019918,0.022187,0.017787,-14.844406,-38.287086,-5.367764,,,,,,,
,,,,,,,,,,,,,,,,6.246995,-75.568844,1504.005283,1.350000,128.320312,1527543018.993215,
1527543019.316213,0.339177,0.266125,1.818219,0.297939,-0.162714,-0.153491,0.320999,-0.262995,-0.909831,0.033081,-0.043676,0.109798,-12.676620,-47.889824,-4.206936,,,,,,,
,,,,,,,,,,,,,,,,6.246978,-75.568840,1502.787144,2.340000,121.640625,1527543019.993185,
1527543020.316589,0.222795,0.300706,1.841794,-0.320699,-0.108775,0.170934,0.211041,-0.296194,-0.931520,0.030017,-0.046335,-0.007658,-12.371094,-46.917870,1.268345,,,,,,,
,,,,,,,,,,,,,,,,6.246965,-75.568833,1502.347446,2.670000,113.203125,1527543020.993155,
1527543021.316944,0.212948,0.218273,1.829216,-0.056999,0.088686,-0.321016,0.206327,-0.216544,-0.954221,-0.016142,0.005286,0.021878,-10.315125,-43.393913,-0.762234,,,,,,,
,,,,,,,,,,,,,,,,6.246952,-75.568827,1501.036167,2.490000,106.523438,1527543021.993125,
1527543022.317355,0.219229,0.216827,1.758525,-0.107134,0.014141,0.044412,0.212385,-0.215132,-0.953210,-0.038771,-0.004717,0.048578,-5.110794,-39.874702,0.410130,,,,,,,
,,,,,,,,,,,,,,,,6.246935,-75.568820,1499.438023,2.490000,101.250000,1527543022.993095,
1527543023.317724,0.260656,0.266389,1.895105,0.221136,0.239092,0.442833,0.248624,-0.263250,-0.932140,-0.041822,0.037450,-0.064213,-8.650421,-23.970970,0.024677,,,,,,,
,,,,,,,,,,,,,,,,6.246923,-75.568809,1499.168125,2.320000,104.414062,1527543023.993066,
1527543024.318099,0.296275,0.259761,1.923411,-0.081719,-0.027016,0.127408,0.282165,-0.256850,-0.924343,0.016312,-0.008104,-0.022984,-10.397461,-17.818581,-1.297710,,,,,,,
,,,,,,,,,,,,,,,,6.246908,-75.568793,1499.660679,2.730000,111.445312,1527543024.993035,
1527543025.318447,0.268007,0.273169,2.032542,0.041963,0.073926,0.219889,0.254991,-0.269784,-0.928544,-0.027238,0.079538,0.031541,-16.379578,-24.487999,-0.447521,,,,,,,
,,,,,,,,,,,,,,,,6.246892,-75.568775,1499.345860,2.920000,112.500000,1527543025.993006,
1527543026.318857,0.302687,0.267277,1.910451,0.139007,0.114958,-0.441296,0.287502,-0.264106,-0.920646,0.053196,0.045585,0.022834,-12.620117,-31.993507,3.032398,,,,,,,
,,,,,,,,,,,,,,,,6.246879,-75.568758,1498.494053,2.730000,113.203125,1527543026.992976,
1527543027.319233,0.267195,0.307761,1.775206,-0.051907,0.058651,-0.150952,0.251621,-0.302926,-0.919196,-0.026615,-0.076667,0.021552,-6.709976,-33.352730,9.662632,,,,,,,
,,,,,,,,,,,,,,,,6.246869,-75.568742,1498.058384,2.160000,114.960938,1527543027.992946,
1527543028.319605,0.503088,0.300180,1.634825,-0.096537,0.602660,0.207513,0.460573,-0.295692,-0.836920,-0.027147,-0.107384,-0.101816,-5.914993,-28.028786,10.195377,,,,,,,
,,,,,,,,,,,,,,,,6.246865,-75.568723,1498.585484,2.120000,111.093750,1527543028.992917,
1527543029.320013,0.369918,0.340719,2.004796,-0.502650,0.027137,0.220562,0.340755,-0.334165,-0.878759,-0.156414,0.071942,-0.001933,-18.907715,-30.413261,5.105366,,,,,,,
,,,,,,,,,,,,,,,,6.246859,-75.568703,1496.965488,2.100000,108.281250,1527543029.992887,
1527543030.320369,0.368485,0.358922,2.088296,0.033259,0.158722,-0.051928,0.337248,-0.351265,-0.873426,-0.057951,0.104637,0.067228,-20.193344,-31.835503,2.185810,,,,,,,
,,,,,,,,,,,,,,,,6.246854,-75.568684,1496.392246,2.100000,110.390625,1527543030.992856,
1527543031.320739,0.481543,0.225292,1.846513,0.747929,0.460896,-0.292745,0.451442,-0.223391,-0.863883,-0.062847,-0.105375,0.015494,-11.990204,-37.467705,0.164310,,,,,,,
,,,,,,,,,,,,,,,,6.246847,-75.568660,1496.696934,2.060000,112.500000,1527543031.992827,
1527543032.321148,0.473712,0.274483,1.660466,-0.120867,-0.045405,0.031417,0.439115,-0.271049,-0.856568,0.055408,0.026283,0.004212,-6.062408,-36.875862,4.624287,,,,,,,
,,,,,,,,,,,,,,,,6.246842,-75.568641,1495.573154,1.950000,111.445312,1527543032.992797,
1527543033.321495,0.487331,0.310843,1.799271,0.026304,-0.096837,0.060817,0.445827,-0.305861,-0.841239,-0.029064,-0.006227,-0.017968,-12.826096,-38.593178,2.792347,,,,,,,
,,,,,,,,,,,,,,,,6.246840,-75.568625,1495.312534,1.690000,106.875000,1527543033.992767,
1527543034.321871,0.438774,0.262789,1.821652,-0.126845,-0.030359,0.059009,0.410245,-0.259774,-0.874193,0.036777,0.041940,0.002138,-12.306976,-39.343208,1.811832,,,,,,,
,,,,,,,,,,,,,,,,6.246836,-75.568605,1495.301182,1.680000,104.062500,1527543034.992737,
1527543035.322243,0.408220,0.257704,1.898026,-0.029251,0.001710,-0.044456,0.383866,-0.254861,-0.887518,-0.041718,-0.056113,0.044913,-16.042938,-37.689491,1.842121,,,,,,,
,,,,,,,,,,,,,,,,6.246828,-75.568587,1495.525181,1.690000,112.851562,1527543035.992707,
1527543036.322654,0.418803,0.242706,1.865173,0.133108,0.015044,-0.017006,0.394748,-0.240330,-0.886799,0.001355,-0.050106,-0.002865,-13.562820,-37.017555,3.026447,,,,,,,
,,,,,,,,,,,,,,,,6.246821,-75.568569,1495.924107,1.690000,113.906250,1527543036.992677,
1527543037.323027,0.428625,0.275626,1.855669,0.050854,-0.063761,0.105129,0.399932,-0.272150,-0.875205,0.049500,-0.049536,0.026679,-17.706085,-39.262611,1.399830,,,,,,,
,,,,,,,,,,,,,,,,6.246811,-75.568548,1494.976719,1.700000,114.960938,1527543037.992648,
1527543038.323386,0.391200,0.290042,1.943327,0.010573,-0.013602,-0.103258,0.365371,-0.285992,-0.885838,0.018219,-0.003009,0.029804,-19.337799,-37.309288,-1.958858,,,,,,,
,,,,,,,,,,,,,,,,6.246801,-75.568527,1493.871250,1.840000,119.179688,1527543038.992618,
1527543039.323762,0.383128,0.282658,1.962664,-0.052441,-0.009319,0.069331,0.358988,-0.278909,-0.890692,-0.038432,0.003351,-0.012018,-6.381897,-22.021294,-3.886333,,,,,,,
,,,,,,,,,,,,,,,,6.246790,-75.568506,1492.710850,1.780000,120.937500,1527543039.992588,
1527543040.324138,0.354698,0.348213,2.023058,0.118496,-0.020306,0.132307,0.326462,-0.341219,-0.881469,0.000488,0.005739,0.006820,-9.714752,-25.917702,-4.397747,,,,,,,
,,,,,,,,,,,,,,,,6.246780,-75.568480,1492.470371,2.050000,120.585938,1527543040.992558,
1527543041.324540,0.396176,0.610098,1.991775,-0.363598,0.014693,-0.049467,0.316273,-0.572948,-0.756103,-0.063846,-0.017644,0.143631,-13.248627,-26.443565,4.400684,,,,,,,
,,,,,,,,,,,,,,,,6.246769,-75.568460,1491.953281,1.780000,130.078125,1527543041.992528,
1527543042.324886,0.315684,0.276844,1.732248,-0.334482,-1.950808,-0.284618,0.298645,-0.273321,-0.914387,0.048538,0.123525,0.053806,-4.009064,-24.950935,0.664738,,,,,,,
,,,,,,,,,,,,,,,,6.246755,-75.568447,1491.151279,1.880000,136.054688,1527543042.992498,
1527543043.325268,0.067152,0.280435,1.530364,0.652292,0.024623,-0.691257,0.064480,-0.276774,-0.958769,-0.034893,0.028971,0.007963,0.290924,-21.955727,1.617115,,,,,,,
,,,,,,,,,,,,,,,,6.246745,-75.568431,1490.940708,1.780000,123.750000,1527543043.992469,
1527543044.325640,-0.084552,0.290297,1.518821,-0.003780,-0.795278,0.226601,-0.080918,-0.286237,-0.954735,0.036118,0.029920,0.050164,0.292572,-21.805351,0.867481,,,,,,,
,,,,,,,,,,,,,,,,6.246738,-75.568415,1490.170811,1.840000,101.601562,1527543044.992439,
1527543045.326012,-0.059017,0.207742,1.315247,0.460899,0.125323,-0.029583,-0.057715,-0.206251,-0.976795,-0.023889,0.039976,-0.056240,8.284393,-25.787651,-0.473415,,,,,,,
,,,,,,,,,,,,,,,,6.246733,-75.568401,1490.027134,1.840000,96.679688,1527543045.992409,
1527543046.326385,-0.046580,0.234831,1.295616,-0.089042,0.002801,0.127161,-0.045285,-0.232679,-0.971498,-0.012287,0.038252,-0.010435,11.111877,-28.415657,-0.124767,,,,,,,
,,,,,,,,,,,,,,,,6.246729,-75.568379,1489.703648,1.840000,85.429688,1527543046.992379,
1527543047.326746,-0.069512,0.227509,1.372888,-0.045783,-0.033441,0.139011,-0.067666,-0.225552,-0.971878,0.027764,0.026608,0.026596,10.237686,-34.189888,0.091908,,,,,,,
,,,,,,,,,,,,,,,,6.246727,-75.568367,1489.248692,1.820000,81.562500,1527543047.992350,
1527543048.327106,-0.096198,0.207657,1.491967,0.268074,0.121624,-0.071682,-0.093986,-0.206168,-0.973992,-0.023598,-0.032525,-0.027397,6.163986,-37.109703,-2.136883,,,,,,,
,,,,,,,,,,,,,,,,6.246728,-75.568357,1488.643345,1.740000,61.171875,1527543048.992319,
1527543049.327480,-0.087600,0.213242,1.587638,0.044453,-0.002023,0.114424,-0.085506,-0.211629,-0.973602,-0.006306,0.014333,0.024261,12.680603,-46.941032,-2.507076,,,,,,,
,,,,,,,,,,,,,,,,6.246732,-75.568342,1488.747105,2.240000,62.578125,1527543049.992290,
1527543050.327868,-0.080497,0.224115,1.710107,0.040654,-0.002954,0.137839,-0.078399,-0.222244,-0.971833,-0.007706,-0.009232,0.023042,13.702957,-50.018562,0.478077,,,,,,,
,,,,,,,,,,,,,,,,6.246740,-75.568324,1487.781162,2.340000,61.171875,1527543050.992260,
1527543051.328228,-0.091023,0.214088,1.824648,0.130072,0.080339,0.069286,-0.088822,-0.212456,-0.973125,-0.020965,-0.036079,0.011088,18.282684,-58.198860,1.925571,,,,,,,
,,,,,,,,,,,,,,,,6.246752,-75.568308,1487.286289,2.330000,56.953125,1527543051.992230,
1527543052.328611,-0.082657,0.216560,1.937129,0.045579,0.014981,0.114405,-0.080635,-0.214872,-0.973307,-0.032601,-0.030963,0.012873,15.820892,-56.547234,3.596928,,,,,,,
,,,,,,,,,,,,,,,,6.246757,-75.568308,1488.323765,2.330000,39.375000,1527543052.992199,
1527543053.328959,-0.087245,0.211189,2.053783,0.003425,0.016319,0.137938,-0.085198,-0.209622,-0.974062,-0.029945,0.004392,0.029513,2.243958,-39.133614,3.510502,,,,,,,
,,,,,,,,,,,,,,,,6.246771,-75.568297,1487.514927,1.910000,38.671875,1527543053.992170,
1527543054.329352,-0.104855,0.165070,2.452804,0.073540,0.065975,0.566854,-0.103241,-0.164321,-0.980988,-0.038910,0.063399,-0.010207,-17.031342,-30.265007,4.867603,,,,,,,
,,,,,,,,,,,,,,,,6.246786,-75.568284,1486.460239,1.780000,36.914062,1527543054.992140,
1527543055.329727,0.083295,0.191339,2.643589,-0.468050,-0.046520,0.607324,0.081680,-0.190174,-0.978346,0.001160,0.063786,0.149320,-23.755478,-27.555458,-0.778561,,,,,,,
,,,,,,,,,,,,,,,,6.246801,-75.568272,1486.071690,1.930000,29.531250,1527543055.992110,
1527543056.330099,0.210739,0.216506,3.006511,-0.096302,0.030252,0.082039,0.204298,-0.214818,-0.955045,0.040117,-0.030574,-0.025316,-30.711945,-16.895592,-6.628216,,,,,,,
,,,,,,,,,,,,,,,,6.246820,-75.568259,1485.558994,1.930000,32.695312,1527543056.992080,
1527543057.330473,0.238724,0.217555,3.049824,-0.102682,0.036895,-0.083737,0.230889,-0.215843,-0.948735,0.054984,-0.075066,-0.027400,-28.657730,-13.596489,-8.959347,,,,,,,
,,,,,,,,,,,,,,,,6.246848,-75.568240,1485.162388,2.210000,33.750000,1527543057.992051,
1527543058.330849,0.271838,0.284762,-3.097105,-0.000092,-0.064550,0.553664,0.257689,-0.280929,-0.924483,0.025865,-0.084824,0.011199,-28.918808,-9.095558,-10.296261,,,,,,,
,,,,,,,,,,,,,,,,6.246880,-75.568219,1485.403843,3.030000,33.046875,1527543058.992022,
1527543059.331229,0.120873,0.494460,-2.813873,0.031111,-0.155442,0.032263,0.106135,-0.474557,-0.873797,-0.012279,0.075067,-0.004957,-35.891159,-8.565453,-6.571133,,,,,,,
,,,,,,,,,,,,,,,,6.246913,-75.568199,1485.339024,3.530000,31.992188,1527543059.991991,
1527543060.331594,0.105806,0.498627,-2.854626,0.054415,0.129334,0.034162,0.092750,-0.478220,-0.873323,-0.040412,0.029611,-0.003599,-37.543716,-8.715080,-4.009930,,,,,,,
,,,,,,,,,,,,,,,,6.246944,-75.568182,1485.563267,3.530000,31.289062,1527543060.991961,
1527543061.331945,0.109199,0.447477,-2.868824,0.004429,0.001216,0.096331,0.098251,-0.432692,-0.896168,-0.063293,0.015914,-0.023632,-37.619202,-8.789848,-4.309597,,,,,,,
,,,,,,,,,,,,,,,,6.246972,-75.568166,1485.294590,3.280000,31.640625,1527543061.991931,
1527543062.332359,0.106688,0.456463,-2.887109,0.072097,-0.021891,-0.010917,0.095583,-0.440776,-0.892509,-0.043810,0.013240,0.033058,-39.888351,-11.037621,-4.224331,,,,,,,
,,,,,,,,,,,,,,,,6.247001,-75.568149,1485.264194,3.280000,32.695312,1527543062.991901,
1527543063.332732,0.119589,0.470451,-2.913679,0.193959,0.007752,0.060362,0.106343,-0.453288,-0.884993,-0.066395,-0.022572,0.061629,-35.367325,-8.641487,-5.524990,,,,,,,
,,,,,,,,,,,,,,,,6.247031,-75.568132,1485.335850,3.280000,33.046875,1527543063.991870,
1527543064.333080,0.130935,0.485818,-2.945733,0.059767,-0.067402,-0.200182,0.115454,-0.466932,-0.876719,-0.033270,-0.096819,0.028010,-32.884079,-7.817726,-8.015316,,,,,,,
,,,,,,,,,,,,,,,,6.247058,-75.568114,1484.806797,3.240000,35.859375,1527543064.991840,
1527543065.333471,0.180592,0.400181,-3.131023,0.234997,0.013076,-0.125600,0.165420,-0.389585,-0.906009,0.026749,-0.084674,-0.063885,-32.308136,-10.816872,-10.876842,,,,,,,
,,,,,,,,,,,,,,,,6.247082,-75.568093,1484.480259,3.330000,44.296875,1527543065.991812,
1527543066.333831,0.261661,0.242518,-3.117792,-0.114086,0.135557,0.083442,0.251115,-0.240147,-0.937692,-0.022584,-0.013469,-0.043296,-31.169434,-9.168312,-10.280697,,,,,,,
,,,,,,,,,,,,,,,,6.247107,-75.568073,1485.026646,3.330000,36.914062,1527543066.991782,
1527543067.334195,0.405269,0.201547,-3.055831,-0.236814,-0.079733,-0.351632,0.386284,-0.200185,-0.900391,0.001899,-0.038630,-0.016602,-30.372681,-12.841133,-16.220455,,,,,,,
,,,,,,,,,,,,,,,,6.247137,-75.568046,1485.239536,3.400000,33.750000,1527543067.991752,
1527543068.334584,0.348269,0.222184,-3.014693,-0.000703,-0.010274,0.129369,0.332882,-0.220360,-0.916856,0.050663,0.052117,0.053651,-29.730347,-7.817162,-15.462383,,,,,,,
,,,,,,,,,,,,,,,,6.247170,-75.568016,1485.734165,3.880000,33.046875,1527543068.991722,
1527543069.334940,0.333674,0.244951,-2.993498,0.001925,-0.001819,-0.096012,0.317739,-0.242509,-0.916638,-0.036306,-0.043196,0.004391,-34.247849,-9.837959,-14.835812,,,,,,,
,,,,,,,,,,,,,,,,6.247206,-75.567990,1486.421299,3.990000,32.695312,1527543069.991693,
1527543070.335297,0.406478,0.272481,-3.091847,-0.095751,0.013394,-0.106990,0.380788,-0.269121,-0.884628,0.029017,-0.045317,-0.061509,-31.063019,-14.566124,-14.869930,,,,,,,
,,,,,,,,,,,,,,,,6.247243,-75.567965,1486.508335,4.030000,36.914062,1527543070.991663,
1527543071.335679,0.416399,0.281346,-3.103522,0.048969,-0.101386,0.009062,0.388565,-0.277649,-0.878589,-0.048065,-0.021317,0.045902,-25.329987,-10.597557,-13.475140,,,,,,,
,,,,,,,,,,,,,,,,6.247283,-75.567939,1486.204502,4.030000,37.265625,1527543071.991633,
1527543072.336037,0.405614,0.299706,-3.073935,-0.047570,0.014584,0.174096,0.376992,-0.295239,-0.877896,-0.015359,0.069669,0.052502,-32.210373,-8.340248,-14.321331,,,,,,,
,,,,,,,,,,,,,,,,6.247317,-75.567912,1487.102940,4.030000,34.101562,1527543072.991603,
1527543073.336415,0.411081,0.289378,-3.062685,0.173226,-0.024501,-0.255197,0.382983,-0.285356,-0.878570,0.001782,-0.126097,0.033172,-30.909821,-14.265648,-16.145260,,,,,,,
1527543074.336936,0.407007,0.284346,-3.104500,0.061940,-0.057207,-0.075145,0.379965,-0.280529,-0.881431,-0.001715,-0.198429,-0.050331,-18.406067,0.871956,-16.344936,,,,,,,
,,,,,,,,,,,,,,,,6.247348,-75.567878,1487.464878,4.120000,45.000000,1527543073.991572,
,,,,,,,,,,,,,,,,6.247377,-75.567841,1488.328037,4.250000,43.593750,1527543074.991543,
1527543075.337298,0.417767,0.291687,-3.087970,-0.174063,-0.048337,0.030155,0.388581,-0.287569,-0.875386,-0.077882,0.015199,0.017353,-18.970230,5.147026,-15.355297,,,,,,,
,,,,,,,,,,,,,,,,6.247412,-75.567814,1488.517246,4.250000,39.726562,1527543075.991514,
1527543076.337672,0.414824,0.282345,-3.097228,-0.105664,-0.003309,-0.054830,0.387069,-0.278609,-0.878946,0.024171,0.043791,-0.051886,-20.202728,1.323265,-15.356228,,,,,,,
,,,,,,,,,,,,,,,,6.247447,-75.567795,1488.792027,4.080000,38.320312,1527543076.991483,
1527543077.338050,0.393344,0.280770,-3.055018,-0.000555,0.114621,0.016855,0.368269,-0.277096,-0.887462,0.042986,0.120525,-0.060353,-23.873184,1.777596,-16.679394,,,,,,,
,,,,,,,,,,,,,,,,6.247479,-75.567786,1489.630650,3.580000,33.398438,1527543077.991454,
1527543078.338433,0.402231,0.286518,-3.052079,-0.003077,0.043646,0.064002,0.375512,-0.282614,-0.882673,-0.031930,0.003378,-0.003786,-23.883682,-8.123741,-14.004086,,,,,,,
,,,,,,,,,,,,,,,,6.247504,-75.567781,1490.276279,3.000000,33.398438,1527543078.991424,
1527543079.338779,0.414085,0.292880,-3.086624,0.076373,0.006666,-0.047186,0.385217,-0.288711,-0.876496,-0.056634,-0.028489,0.048722,-25.147232,-6.921242,-16.467220,,,,,,,
,,,,,,,,,,,,,,,,6.247526,-75.567768,1490.990147,3.010000,45.351562,1527543079.991395,
1527543080.339159,0.361524,0.247077,2.804817,0.074493,-0.620196,-0.431129,0.342958,-0.244571,-0.906950,0.087859,0.055194,0.002806,-22.461105,-8.350639,-13.039608,,,,,,,
,,,,,,,,,,,,,,,,6.247555,-75.567751,1492.134556,3.650000,35.507812,1527543080.991364,
1527543081.339505,0.305655,0.240881,2.740757,0.136653,-0.089871,0.040030,0.292229,-0.238558,-0.926114,0.037300,0.006548,0.053479,-23.930756,-13.524849,-11.692257,,,,,,,
,,,,,,,,,,,,,,,,6.247593,-75.567726,1491.994419,3.650000,31.992188,1527543081.991334,
1527543082.339856,0.275238,0.276029,2.703594,-0.166919,-0.108913,0.034784,0.261487,-0.272537,-0.925928,0.009662,-0.076874,-0.047628,-23.833633,-10.825768,-10.036190,,,,,,,
,,,,,,,,,,,,,,,,6.247634,-75.567698,1491.667515,4.170000,33.046875,1527543082.991304,
1527543083.340243,0.286513,0.268539,2.711571,-0.109686,0.052788,0.109442,0.272480,-0.265323,-0.924853,-0.018512,0.030216,0.056857,-20.890472,-17.503777,-9.923473,,,,,,,
,,,,,,,,,,,,,,,,6.247672,-75.567669,1491.692173,4.440000,35.859375,1527543083.991275,
1527543084.340594,0.290036,0.242483,2.705562,0.008696,0.082148,-0.098200,0.277620,-0.240114,-0.930198,-0.019883,0.073350,0.019446,-24.874023,-27.250481,-8.494961,,,,,,,
,,,,,,,,,,,,,,,,6.247707,-75.567642,1491.300327,4.620000,33.046875,1527543084.991245,
1527543085.340974,0.265766,0.274849,2.817801,0.073865,0.060534,0.098963,0.252790,-0.271402,-0.928673,-0.052381,0.107065,0.118065,-26.793060,-41.124687,-6.266216,,,,,,,
,,,,,,,,,,,,,,,,6.247744,-75.567613,1491.402744,4.620000,28.476562,1527543085.991215,
1527543086.341350,0.274434,0.266760,2.836735,0.121807,0.080155,0.018889,0.261416,-0.263607,-0.928530,0.058591,-0.084385,-0.015394,-30.656082,-45.397514,-2.874859,,,,,,,
,,,,,,,,,,,,,,,,6.247779,-75.567587,1490.758457,4.580000,26.718750,1527543086.991186,
1527543087.341723,0.277785,0.275735,2.878520,0.044057,0.049609,0.013867,0.263867,-0.272254,-0.925336,0.003269,0.045783,-0.011752,-34.298248,-50.269630,-1.361538,,,,,,,
,,,,,,,,,,,,,,,,6.247812,-75.567564,1490.927036,4.510000,27.070312,1527543087.991155,
1527543088.342067,0.269710,0.275692,2.961614,0.115597,0.106110,-0.109546,0.256389,-0.272213,-0.927448,-0.038402,0.047558,0.024479,-41.308929,-36.837471,-1.653896,,,,,,,
,,,,,,,,,,,,,,,,6.247848,-75.567544,1490.131138,4.220000,21.093750,1527543088.991126,
1527543089.342448,0.502193,0.180671,3.094584,0.552111,0.742633,0.857647,0.473512,-0.179689,-0.862258,0.031844,0.025896,-0.038376,-47.031204,-49.347679,-19.795101,,,,,,,
,,,,,,,,,,,,,,,,6.247888,-75.567528,1490.383457,4.270000,15.468750,1527543089.991096,
1527543090.342825,0.434179,0.252298,3.106547,-0.165254,-0.070153,0.140473,0.407346,-0.249630,-0.878491,-0.026731,0.000500,0.041241,-38.607544,-37.433723,-14.574291,,,,,,,
,,,,,,,,,,,,,,,,6.247921,-75.567509,1490.480259,4.270000,21.796875,1527543090.991066,
1527543091.343175,0.371015,0.245738,-3.124113,-0.012848,-0.052619,-0.066306,0.351669,-0.243272,-0.903959,-0.054183,-0.008345,-0.061053,-36.208145,-28.438179,-10.443600,,,,,,,
,,,,,,,,,,,,,,,,6.247956,-75.567481,1489.755894,4.090000,27.773438,1527543091.991036,
1527543092.343556,0.346673,0.246607,-3.104182,-0.024767,0.030002,-0.130942,0.329490,-0.244115,-0.912052,-0.059623,0.023183,-0.035992,-40.491974,-29.409477,-9.291027,,,,,,,
,,,,,,,,,,,,,,,,6.247998,-75.567450,1489.637119,4.090000,28.828125,1527543092.991006,
1527543093.343908,0.328206,0.283576,-3.099861,-0.020231,-0.023508,0.016749,0.309470,-0.279790,-0.908813,-0.075553,0.029912,-0.000947,-41.572052,-32.859138,-7.792095,,,,,,,
,,,,,,,,,,,,,,,,6.248023,-75.567426,1490.673008,4.090000,31.992188,1527543093.990976,
1527543094.344285,0.233674,0.369469,-3.051614,0.222355,-0.241264,0.455988,0.215927,-0.361120,-0.907173,-0.012543,-0.044092,0.092171,-39.326584,-24.313560,-3.436459,,,,,,,
,,,,,,,,,,,,,,,,6.248043,-75.567407,1491.845127,2.680000,32.343750,1527543094.990946,
1527543095.344665,0.140238,0.365724,-3.089466,0.194841,0.037116,0.195984,0.130534,-0.357626,-0.924695,0.015325,-0.165690,0.013684,-36.360519,-19.367516,-1.494854,,,,,,,
,,,,,,,,,,,,,,,,6.248063,-75.567389,1492.227940,2.680000,36.210938,1527543095.990917,
1527543096.345037,0.188940,0.406684,-3.112342,-0.064615,0.005922,0.130961,0.172499,-0.395566,-0.902090,0.005465,-0.060840,0.028250,-34.484344,-19.368217,-3.832989,,,,,,,
,,,,,,,,,,,,,,,,6.248086,-75.567373,1492.591099,2.560000,34.804688,1527543096.990887,
1527543097.345417,0.224607,0.348261,-3.121668,-0.061671,0.010483,-0.023882,0.209353,-0.341264,-0.916355,0.014601,-0.033522,0.002781,-32.406296,-13.293877,-6.682339,,,,,,,
,,,,,,,,,,,,,,,,6.248087,-75.567368,1492.781895,2.440000,36.210938,1527543097.990856,
1527543098.345794,0.120621,0.228278,2.937061,0.016515,-0.659964,-0.999736,0.117207,-0.226301,-0.966979,0.004817,-0.004366,0.002883,-33.066757,-20.120644,-1.819790,,,,,,,
,,,,,,,,,,,,,,,,6.248094,-75.567356,1492.526890,1.100000,68.203125,1527543098.990828,
1527543099.346158,0.248508,0.201385,2.577547,0.256117,0.615048,-0.037039,0.240987,-0.200027,-0.949691,-0.016119,-0.172028,-0.052583,-28.747314,-32.574654,-2.406155,,,,,,,
,,,,,,,,,,,,,,,,6.248109,-75.567345,1492.572666,1.100000,75.234375,1527543099.990797,
1527543100.352401,0.174339,0.264178,2.472144,0.229572,0.007575,0.044166,0.167439,-0.261116,-0.950674,-0.000523,-0.006417,-0.029185,-29.106201,-39.177071,3.129841,,,,,,,
,,,,,,,,,,,,,,,,6.248123,-75.567337,1492.753696,1.100000,75.937500,1527543100.990767,
1527543101.352750,0.209204,0.218549,2.390702,0.188562,-0.232933,-0.050165,0.202741,-0.216813,-0.954927,0.013461,-0.063063,-0.015501,-26.567200,-31.976799,-2.494930,,,,,,,
,,,,,,,,,,,,,,,,6.248140,-75.567314,1492.364170,1.100000,87.890625,1527543101.990736,
1527543102.353113,0.221103,0.278105,2.214834,0.076708,-0.000791,-0.268302,0.210879,-0.274534,-0.938168,-0.001559,-0.009692,0.019863,-33.522980,-55.971672,1.168781,,,,,,,
,,,,,,,,,,,,,,,,6.248153,-75.567277,1492.976475,1.770000,100.546875,1527543102.990707,
1527543103.353501,0.229527,0.249602,1.946614,0.010341,0.070786,-0.246628,0.220467,-0.247018,-0.943597,-0.013512,-0.018134,-0.117316,-21.506989,-53.811043,5.890064,,,,,,,
,,,,,,,,,,,,,,,,6.248162,-75.567244,1492.797276,2.900000,111.796875,1527543103.990677,
1527543104.353855,0.276451,0.245613,1.795381,-0.249855,0.026914,-0.077670,0.264752,-0.243151,-0.933157,0.020634,-0.060605,0.025747,-22.202271,-56.284599,4.388752,,,,,,,
,,,,,,,,,,,,,,,,6.248163,-75.567210,1492.807652,3.100000,120.234375,1527543104.990647,
1527543105.354233,0.295974,0.240962,1.652333,-0.119528,-0.123838,-0.153113,0.283244,-0.238637,-0.928883,-0.018901,0.015660,-0.043484,-15.292908,-46.316872,5.115299,,,,,,,
,,,,,,,,,,,,,,,,6.248149,-75.567175,1492.346836,3.310000,131.835938,1527543105.990618,
1527543106.354611,0.349736,0.190171,1.606985,0.059837,0.451611,0.075069,0.336472,-0.189027,-0.922525,-0.031846,0.118593,0.038218,-15.250687,-50.439659,0.604710,,,,,,,
,,,,,,,,,,,,,,,,6.248139,-75.567142,1493.134922,3.100000,120.937500,1527543106.990588,
1527543107.354967,0.437891,0.275679,1.759807,0.023088,-0.070331,-0.181825,0.408018,-0.272200,-0.871450,0.044023,-0.023164,-0.132304,-21.206635,-45.481789,-3.241207,,,,,,,
,,,,,,,,,,,,,,,,6.248131,-75.567113,1492.760532,2.980000,122.343750,1527543107.990559,
1527543108.355310,0.453304,0.302753,1.738466,-0.036848,0.066905,0.012892,0.418020,-0.298149,-0.858116,-0.039297,0.088585,0.025520,-25.302338,-50.877541,-3.526028,,,,,,,
,,,,,,,,,,,,,,,,6.248119,-75.567090,1492.780918,2.680000,126.914062,1527543108.990528,
1527543109.355696,0.466998,0.303658,1.691588,0.117064,-0.053766,0.019144,0.429609,-0.299013,-0.852070,-0.028029,-0.040495,0.061253,-21.904800,-48.181313,-2.793072,,,,,,,
,,,,,,,,,,,,,,,,6.248105,-75.567056,1493.087681,3.000000,131.132812,1527543109.990498,
1527543110.356060,0.432363,0.299643,1.725633,0.000835,-0.098581,-0.107507,0.400346,-0.295179,-0.867519,0.046294,-0.040240,0.050991,-18.240463,-40.684364,-3.999981,,,,,,,
,,,,,,,,,,,,,,,,6.248088,-75.567035,1493.558262,3.000000,128.320312,1527543110.990469,
1527543111.356431,0.453001,0.298311,1.734196,-0.083513,-0.065707,0.028149,0.418335,-0.293907,-0.859424,-0.053711,-0.111733,-0.061794,-18.338867,-43.459084,-4.381237,,,,,,,
,,,,,,,,,,,,,,,,6.248083,-75.567011,1492.949497,2.650000,120.585938,1527543111.990438,
1527543112.356937,0.471911,0.319270,1.701351,0.300331,-0.090032,0.138051,0.431615,-0.313874,-0.845687,0.009715,-0.036926,0.024199,-6.718307,-26.072929,0.080891,,,,,,,
,,,,,,,,,,,,,,,,6.248073,-75.566991,1492.896152,2.490000,131.484375,1527543112.990409,
1527543113.357321,0.295952,0.305790,1.587797,0.152852,-0.998864,0.447901,0.278120,-0.301046,-0.912150,0.104845,-0.074488,-0.024862,-2.100998,-21.201653,-1.739254,,,,,,,
,,,,,,,,,,,,,,,,6.248065,-75.566955,1493.494053,2.490000,134.296875,1527543113.990379,
1527543114.357677,0.018168,0.429518,1.615435,0.190730,-0.268935,-0.015836,0.016517,-0.416433,-0.909015,0.017312,-0.021754,0.001743,-3.942184,-25.702721,4.112385,,,,,,,
,,,,,,,,,,,,,,,,6.248051,-75.566924,1493.125156,3.540000,128.671875,1527543114.990349,
1527543115.358057,0.015705,0.371638,1.743512,-0.065293,-0.022198,0.029536,0.014632,-0.363142,-0.931618,-0.024428,0.018934,-0.002418,-7.840210,-25.548164,2.790058,,,,,,,
,,,,,,,,,,,,,,,,6.248042,-75.566892,1493.160069,3.540000,125.156250,1527543115.990319,
1527543116.358443,-0.000364,0.384598,1.734067,0.019964,0.010043,-0.049656,-0.000338,-0.375186,-0.926949,-0.005491,-0.049680,0.016869,-6.028961,-24.348915,0.680378,,,,,,,
,,,,,,,,,,,,,,,,6.248028,-75.566865,1493.171543,3.410000,126.562500,1527543116.990290,
1527543117.358786,-0.001799,0.376038,1.763984,-0.049071,0.014771,-0.223368,-0.001673,-0.367239,-0.930124,-0.024694,-0.076731,0.038157,-11.736542,-25.168831,1.918278,,,,,,,
,,,,,,,,,,,,,,,,6.248022,-75.566820,1492.975132,3.410000,126.562500,1527543117.990260,
1527543118.359179,-0.004489,0.368358,1.756624,0.031294,-0.053944,-0.084452,-0.004188,-0.360084,-0.932909,-0.001687,-0.049629,0.027392,-7.791183,-28.697426,1.206837,,,,,,,
,,,,,,,,,,,,,,,,6.248003,-75.566788,1492.609531,3.700000,126.210938,1527543118.990231,
1527543119.359536,0.012993,0.360300,1.706671,-0.024815,-0.027659,0.029481,0.012159,-0.352555,-0.935712,0.028613,0.027527,-0.027133,-9.066254,-28.696220,1.365772,,,,,,,
,,,,,,,,,,,,,,,,6.247975,-75.566756,1492.761753,4.370000,128.320312,1527543119.990201,
1527543120.359920,0.003857,0.366175,1.734169,-0.000500,0.022455,0.084410,0.003602,-0.358046,-0.933696,-0.021851,0.022307,-0.022832,-12.559021,-33.643456,2.802845,,,,,,,
,,,,,,,,,,,,,,,,6.247950,-75.566724,1492.466343,4.370000,130.078125,1527543120.990170,
1527543121.360274,0.009722,0.359180,1.717064,0.140521,-0.041147,0.018590,0.009102,-0.351507,-0.936140,0.058525,-0.011469,0.017424,-7.801270,-29.897301,0.978916,,,,,,,
,,,,,,,,,,,,,,,,6.247932,-75.566693,1492.530064,4.260000,124.453125,1527543121.990140,
1527543122.360657,0.002955,0.360253,1.719040,0.065203,-0.049406,-0.203327,0.002765,-0.352511,-0.935803,0.019833,-0.041868,0.046597,-6.862991,-25.398201,0.908588,,,,,,,
,,,,,,,,,,,,,,,,6.247915,-75.566655,1492.642490,4.260000,121.640625,1527543122.990111,
1527543123.361035,0.006043,0.347667,1.718790,-0.023702,-0.037943,-0.100847,0.005681,-0.340706,-0.940152,-0.018743,-0.069298,0.019056,-8.524765,-26.746849,1.516850,,,,,,,
,,,,,,,,,,,,,,,,6.247888,-75.566629,1491.249546,3.850000,124.101562,1527543123.990081,
1527543124.361409,0.003490,0.345104,1.705615,0.010500,0.059937,-0.051153,0.003284,-0.338294,-0.941034,0.070965,-0.003411,0.034860,-8.452759,-27.121727,1.140415,,,,,,,
,,,,,,,,,,,,,,,,6.247859,-75.566611,1491.069614,3.520000,131.835938,1527543124.990051,
1527543125.361825,0.008165,0.323783,1.706815,-0.001119,-0.040845,-0.234917,0.007740,-0.318155,-0.948007,0.038799,-0.036414,-0.016257,-5.849670,-20.899162,0.762745,,,,,,,
,,,,,,,,,,,,,,,,6.247829,-75.566587,1490.561192,3.660000,134.296875,1527543125.990021,
1527543126.362224,0.008003,0.306135,1.708214,-0.043080,-0.018134,0.032137,0.007631,-0.301376,-0.953475,-0.035173,-0.085175,-0.072709,-7.727966,-21.272392,0.999958,,,,,,,
,,,,,,,,,,,,,,,,6.247807,-75.566558,1490.751255,3.520000,129.375000,1527543126.989992,
1527543127.362596,0.075751,0.250891,1.685511,-0.062263,-0.200797,0.049278,0.073309,-0.248267,-0.965913,-0.044088,-0.039666,-0.007674,-5.989166,-19.773079,-1.108471,,,,,,,
,,,,,,,,,,,,,,,,6.247789,-75.566516,1490.909458,3.660000,134.296875,1527543127.989961,
1527543128.362986,-0.053955,0.311703,1.494323,0.289971,-0.190352,-0.140844,-0.051330,-0.306680,-0.950427,0.005798,0.078409,0.040805,-0.506653,-18.953026,-2.194790,,,,,,,
,,,,,,,,,,,,,,,,6.247770,-75.566463,1491.405430,4.090000,129.375000,1527543128.989932,
1527543129.363368,0.011028,0.265537,1.562614,0.019494,0.079897,0.138071,0.010641,-0.262428,-0.964893,0.002573,-0.038308,0.004871,-2.721725,-23.675713,-2.341091,,,,,,,
,,,,,,,,,,,,,,,,6.247754,-75.566412,1490.851719,4.420000,131.132812,1527543129.989902,
1527543130.363777,-0.015668,0.310480,1.508014,0.008142,0.285187,-0.056165,-0.014918,-0.305515,-0.952070,0.063289,0.028141,0.057615,-3.576385,-26.976479,0.881641,,,,,,,
,,,,,,,,,,,,,,,,6.247741,-75.566362,1490.476841,4.420000,124.101562,1527543130.989872,
1527543131.364191,0.064344,0.206204,1.659164,0.001979,-0.011407,0.144315,0.062938,-0.204746,-0.976790,-0.045772,0.074924,-0.106859,-11.878235,-33.117821,0.174397,,,,,,,
,,,,,,,,,,,,,,,,6.247737,-75.566325,1489.748814,4.100000,119.179688,1527543131.989842,
1527543132.364579,0.117295,0.197588,1.736520,-0.004546,0.027146,0.196400,0.114749,-0.196305,-0.973805,-0.108493,0.049332,0.066869,-7.738785,-31.545860,-2.025646,,,,,,,
,,,,,,,,,,,,,,,,6.247736,-75.566290,1489.382725,2.830000,116.015625,1527543132.989811,
1527543133.364988,0.103506,0.210858,1.759871,0.231029,0.019049,0.025933,0.101033,-0.209299,-0.972618,-0.011143,0.018442,-0.009132,-8.324234,-29.671669,0.758137,,,,,,,
,,,,,,,,,,,,,,,,6.247730,-75.566259,1489.143711,2.710000,116.367188,1527543133.989782,
1527543134.365366,-0.001444,0.320721,1.789187,-0.081563,-0.297853,-0.040641,-0.001370,-0.315251,-0.949007,0.005780,0.012456,0.060854,-8.849777,-29.448586,5.637379,,,,,,,
,,,,,,,,,,,,,,,,6.247722,-75.566224,1489.539219,2.970000,118.828125,1527543134.989752,
1527543135.365735,-0.038564,0.321908,1.796850,-0.094065,0.060998,0.079835,-0.036574,-0.316377,-0.947928,0.006392,0.037828,0.051169,-7.097717,-26.300026,5.032978,,,,,,,
,,,,,,,,,,,,,,,,6.247711,-75.566186,1489.684727,3.340000,114.257812,1527543135.989722,
1527543136.366147,-0.030920,0.290020,1.879186,0.061612,0.029951,0.154258,-0.029624,-0.285971,-0.957780,-0.055139,0.036154,0.051393,-12.545609,-31.919701,5.282063,,,,,,,
,,,,,,,,,,,,,,,,6.247704,-75.566157,1489.851109,2.970000,115.312500,1527543136.989693,
1527543137.366496,-0.029697,0.293203,1.872272,-0.020044,-0.059181,0.335206,-0.028426,-0.289020,-0.956901,-0.079500,0.066913,-0.037469,-10.828903,-32.896416,5.267612,,,,,,,
,,,,,,,,,,,,,,,,6.247692,-75.566126,1490.510654,2.910000,116.015625,1527543137.989662,
1527543138.366881,-0.035492,0.286359,1.864467,0.033347,0.003458,-0.074969,-0.034039,-0.282461,-0.958674,-0.052127,-0.040491,0.016429,-10.544281,-34.622414,6.686298,,,,,,,
,,,,,,,,,,,,,,,,6.247681,-75.566104,1491.431187,2.690000,116.367188,1527543138.989634,
1527543139.367286,-0.043104,0.284421,1.881570,-0.029615,-0.122429,-0.004569,-0.041360,-0.280602,-0.958932,-0.061713,0.008171,-0.042883,-9.416534,-34.174583,8.779530,,,,,,,
,,,,,,,,,,,,,,,,6.247673,-75.566097,1491.352451,0.920000,117.773438,1527543139.989603,
1527543140.367643,-0.058012,0.285197,1.878415,-0.162226,-0.021170,-0.054037,-0.055637,-0.281346,-0.957992,-0.015011,0.033818,0.033874,-6.614960,-31.101936,7.867603,,,,,,,
,,,,,,,,,,,,,,,,6.247668,-75.566085,1491.803989,0.920000,120.585938,1527543140.989573,
1527543141.368018,-0.070197,0.032955,1.835351,0.995135,-0.030312,0.512798,-0.070101,-0.032949,-0.996996,0.041460,-0.060222,-0.063109,-5.019089,-29.074883,0.586491,,,,,,,
,,,,,,,,,,,,,,,,6.247660,-75.566084,1491.921665,0.760000,120.234375,1527543141.989544,
1527543142.368385,0.083322,0.308421,1.839080,0.030915,0.078828,0.113876,0.079299,-0.303554,-0.949508,0.021318,-0.051106,0.010849,-6.003830,-29.752876,8.541691,,,,,,,
,,,,,,,,,,,,,,,,6.247651,-75.566074,1492.358067,0.240000,122.695312,1527543142.989513,
1527543143.368765,0.232760,0.191882,1.817563,0.045046,0.222778,-0.001560,0.226431,-0.190707,-0.955175,-0.018454,-0.021055,0.034292,-4.866287,-28.551689,3.886738,,,,,,,
,,,,,,,,,,,,,,,,6.247651,-75.566074,1493.024937,0.000000,112.500000,1527543143.989484,
1527543144.369114,0.113872,0.041160,1.782334,0.386389,0.721829,-0.489256,0.113530,-0.041148,-0.992682,0.110637,0.007472,-0.123620,-0.156860,-21.804344,-0.254375,,,,,,,
,,,,,,,,,,,,,,,,6.247651,-75.566074,1493.209873,0.000000,117.773438,1527543144.989454,
1527543145.369489,0.321429,0.204130,1.735229,-0.000131,-0.357830,-0.310833,0.309363,-0.202716,-0.929086,0.052545,-0.011930,-0.007773,-1.239639,-25.405418,4.094212,,,,,,,
,,,,,,,,,,,,,,,,6.247651,-75.566074,1493.756870,0.000000,129.023438,1527543145.989424,
1527543146.369835,0.304612,0.247410,1.641580,0.135569,-0.286402,0.056599,0.290790,-0.244894,-0.924915,0.045544,0.000692,0.011219,0.701141,-26.383247,5.878178,,,,,,,
,,,,,,,,,,,,,,,,6.247651,-75.566074,1494.566074,0.000000,127.968750,1527543146.989394,
1527543147.370182,0.321780,0.254804,1.689228,-0.142903,0.134928,-0.078552,0.306045,-0.252055,-0.918044,0.027039,-0.009801,0.034407,-2.540665,-28.404640,5.145817,,,,,,,
,,,,,,,,,,,,,,,,6.247651,-75.566074,1494.970127,0.000000,125.156250,1527543147.989365,
1527543148.370568,0.317628,0.255502,1.701372,0.104720,-0.054158,-0.079420,0.302175,-0.252731,-0.919139,0.005411,0.002090,0.011806,-3.451691,-29.678917,5.524006,,,,,,,
,,,,,,,,,,,,,,,,6.247625,-75.566046,1494.983311,0.150000,127.968750,1527543148.989335,
1527543149.370923,0.329142,0.272043,1.675469,-0.003140,0.012662,0.022449,0.311344,-0.268699,-0.911518,0.008022,-0.007790,0.017079,-4.071259,-31.928749,6.422718,,,,,,,
,,,,,,,,,,,,,,,,6.247625,-75.566046,1495.360508,0.000000,128.320312,1527543149.989305,
1527543150.371282,0.336603,0.269317,1.675506,0.012635,0.015638,-0.010287,0.318376,-0.266074,-0.909858,-0.002275,-0.005609,-0.000085,-3.834518,-30.578728,5.899448,,,,,,,
,,,,,,,,,,,,,,,,6.247614,-75.566041,1495.818272,0.150000,129.375000,1527543150.989275,
1527543151.371644,0.352724,0.274917,1.669374,-0.026291,0.025262,-0.028364,0.332483,-0.271467,-0.903195,0.003256,-0.011202,0.007504,-4.210983,-30.728539,6.276707,,,,,,,
,,,,,,,,,,,,,,,,6.247606,-75.566034,1495.679844,0.150000,129.726562,1527543151.989245,
1527543152.371989,0.363449,0.258911,1.667051,-0.001988,-0.024586,0.014035,0.343651,-0.256028,-0.903523,0.003135,-0.001296,0.009480,-2.395798,-29.004829,5.218311,,,,,,,
,,,,,,,,,,,,,,,,6.247598,-75.566031,1496.007236,0.250000,130.781250,1527543152.989216,
1527543153.372366,0.314251,0.244112,1.625924,0.065953,-0.448540,-0.116650,0.299940,-0.241695,-0.922832,-0.028806,-0.038289,-0.027103,-4.093826,-34.628349,5.666126,,,,,,,
,,,,,,,,,,,,,,,,6.247585,-75.566029,1496.225986,0.280000,142.734375,1527543153.989186,
1527543154.377587,0.229132,0.222584,1.539648,0.031027,0.253263,0.133695,0.221529,-0.220750,-0.949839,-0.010668,-0.011626,0.006892,-3.548645,-41.004524,6.921375,,,,,,,
,,,,,,,,,,,,,,,,6.247572,-75.566027,1497.430698,0.210000,142.734375,1527543154.989155,
1527543155.377958,0.200727,0.270819,1.474217,0.228284,-0.008718,-0.031663,0.192115,-0.267520,-0.944206,-0.021949,-0.004086,0.031410,-1.382553,-41.907921,9.378956,,,,,,,
,,,,,,,,,,,,,,,,6.247555,-75.566029,1498.791294,0.220000,149.062500,1527543155.989125,
1527543156.378330,0.209427,0.287263,1.460112,0.019949,0.040267,0.038948,0.199380,-0.283329,-0.938068,0.000861,-0.003048,0.021000,-3.324524,-49.632286,11.998234,,,,,,,
,,,,,,,,,,,,,,,,6.247555,-75.566029,1499.498936,0.000000,149.414062,1527543156.989096,
1527543157.378660,0.234685,0.269986,1.472423,-0.048234,0.035011,-0.003304,0.224113,-0.266718,-0.937355,0.004158,-0.004431,0.015084,-3.846329,-49.331123,10.727650,,,,,,,
,,,,,,,,,,,,,,,,6.247555,-75.566029,1499.220860,0.000000,230.273438,1527543157.989066,
1527543158.379026,0.484479,0.238752,1.744287,-0.062111,0.025238,0.161974,0.452536,-0.236490,-0.859816,0.001597,-0.000815,0.002944,-23.564453,-57.857079,2.069355,,,,,,,
,,,,,,,,,,,,,,,,6.247555,-75.566029,1500.156162,0.000000,161.367188,1527543158.989036,
1527543159.379401,0.451772,0.254056,1.756024,-0.011584,0.015846,0.019015,0.422547,-0.251332,-0.870796,0.002273,-0.012966,0.009865,-23.015167,-54.933189,3.197819,,,,,,,
,,,,,,,,,,,,,,,,6.247555,-75.566029,1501.382603,0.000000,220.429688,1527543159.989006,
1527543160.379876,0.448940,0.258082,1.797290,-0.018804,0.003070,0.008194,0.419637,-0.255227,-0.871071,-0.014028,0.010521,0.010765,-26.018646,-55.379860,2.542728,,,,,,,
,,,,,,,,,,,,,,,,6.247531,-75.566026,1501.808384,0.340000,36.562500,1527543160.988977,
1527543161.380229,0.449840,0.253467,1.791998,-0.007433,-0.003694,-0.062019,0.420929,-0.250762,-0.871744,-0.012374,-0.009340,0.008158,-22.159134,-51.333611,2.300831,,,,,,,
,,,,,,,,,,,,,,,,6.247542,-75.566016,1501.712559,0.340000,36.210938,1527543161.988947,
1527543162.380594,0.456476,0.253663,1.797393,0.002328,-0.022492,0.011995,0.426682,-0.250951,-0.868888,-0.003251,-0.004084,0.006400,-16.608429,-42.414253,2.509266,,,,,,,
,,,,,,,,,,,,,,,,6.247542,-75.566016,1501.754551,0.000000,36.210938,1527543162.988917,
1527543163.380946,0.426325,0.301755,1.779017,0.420191,-0.176657,-0.100191,0.394843,-0.297196,-0.869352,-0.013251,-0.011916,-0.009127,-15.854843,-41.816505,5.505497,,,,,,,
,,,,,,,,,,,,,,,,6.247542,-75.566016,1501.205357,0.000000,36.210938,1527543163.988887,
1527543164.381302,0.030206,0.296268,1.320375,-0.360289,-0.012308,0.069317,0.028885,-0.291953,-0.955996,0.077789,-0.088815,0.024463,9.205994,-31.567848,8.055683,,,,,,,
,,,,,,,,,,,,,,,,6.247542,-75.566016,1501.095737,0.000000,36.210938,1527543164.988857,
1527543165.381682,0.131009,0.140630,1.431411,0.039124,0.193169,0.018696,0.129345,-0.140166,-0.981643,0.000706,-0.001679,0.023925,4.511200,-37.110832,3.424686,,,,,,,
,,,,,,,,,,,,,,,,6.247542,-75.566016,1500.972691,0.000000,36.562500,1527543165.988827,
1527543166.382051,0.031838,0.160019,1.428885,-0.011644,0.069665,0.153483,0.031426,-0.159337,-0.986724,-0.009713,-0.013606,0.021178,3.399887,-44.235466,4.914661,,,,,,,
,,,,,,,,,,,,,,,,6.247538,-75.565998,1500.953159,0.150000,210.234375,1527543166.988797,
1527543167.382392,0.107957,0.148043,1.477346,-0.033196,0.004111,-0.011382,0.106569,-0.147503,-0.983304,-0.001253,0.001033,0.007855,1.010590,-43.032600,3.959385,,,,,,,
,,,,,,,,,,,,,,,,6.247538,-75.565998,1501.705357,0.000000,32.695312,1527543167.988767,
1527543168.382751,0.116057,0.146351,1.486327,0.003778,0.007217,0.001266,0.114558,-0.145829,-0.982655,-0.005366,-0.000701,-0.001980,-0.295151,-46.631447,4.259525,,,,,,,
,,,,,,,,,,,,,,,,6.247538,-75.565998,1501.807285,0.000000,49.570312,1527543168.988737,
1527543169.383128,0.120528,0.146380,1.489567,-0.010170,-0.003330,0.004168,0.118950,-0.145857,-0.982129,-0.003380,-0.006029,0.005764,-0.302353,-47.456627,4.632526,,,,,,,
,,,,,,,,,,,,,,,,6.247538,-75.565998,1502.026035,0.000000,49.570312,1527543169.988708,
1527543170.383454,0.120324,0.144232,1.496167,-0.005923,-0.012922,0.003228,0.118788,-0.143733,-0.982461,-0.009275,-0.003255,0.004693,0.792160,-42.282204,3.587803,,,,,,,
,,,,,,,,,,,,,,,,6.247538,-75.565998,1502.324253,0.000000,49.570312,1527543170.988678,
1527543171.383833,0.119756,0.143739,1.494498,-0.018310,-0.004437,-0.010986,0.118238,-0.143244,-0.982599,-0.000775,-0.010595,0.008493,0.110519,-43.031776,4.115696,,,,,,,
,,,,,,,,,,,,,,,,6.247538,-75.565998,1502.417515,0.000000,49.570312,1527543171.988648,
1527543172.384211,0.118836,0.144313,1.498450,-0.005849,0.005157,0.003184,0.117325,-0.143813,-0.982625,-0.004226,-0.005128,0.007635,-2.831146,-53.754356,5.159473,,,,,,,
,,,,,,,,,,,,,,,,6.247538,-75.565998,1502.637363,0.000000,49.570312,1527543172.988618,
1527543173.384529,0.118360,0.144962,1.502188,-0.004014,-0.009678,0.012890,0.116845,-0.144454,-0.982589,0.000373,-0.000779,0.019912,-3.509964,-54.203682,5.163105,,,,,,,
,,,,,,,,,,,,,,,,6.247538,-75.565998,1502.842686,0.000000,49.570312,1527543173.988588,
1527543174.384894,0.101195,0.154765,1.510356,0.007449,-0.003497,-0.017830,0.099815,-0.154148,-0.982993,-0.010139,-0.007595,0.015281,-3.955948,-53.678688,6.067539,,,,,,,
,,,,,,,,,,,,,,,,6.247538,-75.565998,1503.249668,0.000000,49.570312,1527543174.988558,
1527543175.385241,0.095416,0.161985,1.501952,0.023941,0.003997,0.004992,0.094024,-0.161278,-0.982420,0.006455,-0.001793,0.002043,-2.065140,-51.880043,5.008808,,,,,,,
,,,,,,,,,,,,,,,,6.247538,-75.565998,1503.754673,0.000000,49.570312,1527543175.988529,
1527543176.385610,0.077298,0.169563,1.543714,-0.001163,-0.020055,0.066407,0.076113,-0.168752,-0.982715,0.021406,-0.007731,0.001102,-1.610611,-42.580025,4.053867,,,,,,,
,,,,,,,,,,,,,,,,6.247538,-75.565998,1504.166660,0.000000,49.570312,1527543176.988498,
1527543177.385857,0.001349,0.069698,1.532987,0.224051,0.235058,0.041257,0.001346,-0.069641,-0.997571,0.002164,-0.013626,-0.007724,-1.300812,-41.678200,-0.221050,,,,,,,
,,,,,,,,,,,,,,,,6.247538,-75.565998,1504.515293,0.000000,49.570312,1527543177.988468,
1527543178.386220,0.024459,0.092267,1.573892,0.405861,-0.513276,-0.044038,0.024353,-0.092136,-0.995449,0.061997,-0.015652,-0.017338,-2.273743,-41.377724,0.761509,,,,,,,
,,,,,,,,,,,,,,,,6.247538,-75.565998,1505.761997,0.000000,119.179688,1527543178.988438,
1527543179.386601,-0.061136,0.121394,1.597643,-0.104399,-0.013547,0.020032,-0.060648,-0.121096,-0.990786,0.004496,-0.020185,0.000079,3.075775,-29.534218,3.078678,,,,,,,
,,,,,,,,,,,,,,,,6.247537,-75.565975,1505.712803,0.240000,112.148438,1527543179.988408,
1527543180.386934,-0.291008,-0.199083,1.806402,-0.783619,-0.093107,-0.051935,-0.281251,0.197770,-0.939034,-0.004394,0.011229,0.041085,1.988617,-7.482735,2.241428,,,,,,,
,,,,,,,,,,,,,,,,6.247541,-75.565966,1504.777012,1.210000,104.765625,1527543180.988379,
1527543181.387297,-0.150421,-0.246836,1.863689,0.348291,-0.078479,0.140283,-0.145312,0.244337,-0.958741,0.021167,0.040926,-0.083175,-6.458221,-13.172768,-0.788677,,,,,,,
,,,,,,,,,,,,,,,,6.247540,-75.565953,1504.052280,1.210000,109.687500,1527543181.988348,
1527543182.387664,-0.084594,-0.117159,1.813237,0.819279,-0.237496,-0.920354,-0.083914,0.116891,-0.989593,0.103170,-0.076287,0.031769,-5.492249,-14.372566,-3.123440,,,,,,,
,,,,,,,,,,,,,,,,6.247538,-75.565939,1503.142002,1.510000,112.851562,1527543182.988318,
1527543183.388025,-0.079503,0.287419,2.051862,0.814181,-0.271665,-0.519757,-0.076161,-0.283478,-0.955950,0.077778,0.078843,0.079469,-20.699646,-29.585426,3.019978,,,,,,,
,,,,,,,,,,,,,,,,6.247535,-75.565915,1502.473545,1.770000,111.445312,1527543183.988288,
1527543184.388407,-0.083365,0.145076,1.936731,0.287987,0.242138,-0.414456,-0.082394,-0.144567,-0.986059,-0.045185,-0.039042,-0.087443,-22.396652,-35.431053,-2.307751,,,,,,,
,,,,,,,,,,,,,,,,6.247527,-75.565883,1501.939610,3.600000,109.335938,1527543184.988259,
1527543185.388769,0.103054,0.134075,1.768475,0.037750,0.385504,0.013823,0.101948,-0.133673,-0.985768,0.047359,0.040106,0.037861,-8.942551,-32.143349,-4.643719,,,,,,,
,,,,,,,,,,,,,,,,6.247518,-75.565846,1502.289951,3.820000,107.226562,1527543185.988229,
1527543186.389125,0.094067,0.203334,1.873935,-0.207908,0.149190,-0.035326,0.091994,-0.201935,-0.975069,-0.043684,0.005845,-0.014342,-15.068192,-46.540489,1.888172,,,,,,,
,,,,,,,,,,,,,,,,6.247506,-75.565805,1501.789463,3.820000,108.281250,1527543186.988199,
1527543187.389468,0.109034,0.112595,1.919384,0.119533,-0.081928,0.127198,0.108129,-0.112358,-0.987767,-0.007574,0.063377,0.034947,-7.149551,-41.373680,2.445652,,,,,,,
,,,,,,,,,,,,,,,,6.247493,-75.565762,1499.968296,4.520000,108.984375,1527543187.988169,
1527543188.389848,0.130391,0.087553,1.895576,0.134719,-0.067765,-0.006018,0.129524,-0.087441,-0.987713,-0.026466,-0.000938,0.014874,-12.646683,-35.292015,0.099339,,,,,,,
,,,,,,,,,,,,,,,,6.247478,-75.565717,1498.664707,4.760000,110.742188,1527543188.988140,
1527543189.390223,0.092256,0.120923,1.860630,-0.211240,-0.026716,0.070861,0.091453,-0.120628,-0.988476,-0.049903,0.000053,-0.031284,-17.527328,-35.887718,1.257023,,,,,,,
,,,,,,,,,,,,,,,,6.247468,-75.565663,1496.907993,5.260000,114.960938,1527543189.988110,
1527543190.390576,0.046812,0.151676,1.873349,0.018270,-0.018057,-0.152161,0.046258,-0.151095,-0.987436,-0.007409,0.000796,0.023706,-15.118149,-34.914207,-0.557415,,,,,,,
,,,,,,,,,,,,,,,,6.247440,-75.565607,1496.450352,5.670000,117.421875,1527543190.988078,
1527543191.390959,0.009848,0.173036,1.822986,0.109356,-0.186147,-0.112057,0.009701,-0.172174,-0.985019,0.028202,0.076272,-0.082120,-13.532516,-33.417900,3.635227,,,,,,,
,,,,,,,,,,,,,,,,6.247421,-75.565565,1496.018833,5.640000,120.234375,1527543191.988048,
1527543192.391333,-0.006719,0.187609,1.851498,0.130143,-0.074749,0.296247,-0.006601,-0.186511,-0.982431,-0.039740,0.047045,-0.030021,-17.816177,-34.240273,6.963154,,,,,,,
,,,,,,,,,,,,,,,,6.247400,-75.565511,1495.801792,5.670000,116.718750,1527543192.988020,
1527543193.391650,-0.005355,0.174602,1.853799,0.070935,-0.037526,0.035085,-0.005273,-0.173716,-0.984782,-0.015570,0.012537,0.045191,-19.684479,-33.711205,2.552555,,,,,,,
,,,,,,,,,,,,,,,,6.247373,-75.565457,1496.329624,6.020000,115.312500,1527543193.987990,
1527543194.392093,-0.015181,0.177987,1.888147,-0.029633,0.047421,-0.061635,-0.014940,-0.177049,-0.984088,-0.032377,0.038560,0.022678,-20.122543,-41.135719,2.462070,,,,,,,
,,,,,,,,,,,,,,,,6.247349,-75.565412,1495.775791,5.750000,114.960938,1527543194.987961,
1527543195.392447,-0.032033,0.180080,1.886668,0.020656,0.037155,0.052869,-0.031509,-0.179109,-0.983324,-0.004685,0.066728,-0.020185,-15.361664,-37.089012,-0.486141,,,,,,,
,,,,,,,,,,,,,,,,6.247326,-75.565368,1495.248447,5.750000,114.609375,1527543195.987931,
1527543196.392806,-0.039570,0.181321,1.890907,-0.102615,0.037176,-0.042024,-0.038911,-0.180330,-0.982836,-0.038191,0.043229,0.031634,-12.890732,-28.915016,-3.408001,,,,,,,
,,,,,,,,,,,,,,,,6.247320,-75.565336,1493.791294,5.530000,109.687500,1527543196.987901,
1527543197.393162,-0.033690,0.149610,1.911267,0.008704,-0.024439,0.053822,-0.033307,-0.149053,-0.988268,-0.071383,-0.034434,0.008227,-21.310638,-39.858482,0.373569,,,,,,,
,,,,,,,,,,,,,,,,6.247286,-75.565291,1493.838535,5.040000,113.203125,1527543197.987871,
1527543198.393542,-0.014956,0.132526,1.876154,0.009049,-0.006416,0.043100,-0.014824,-0.132139,-0.991120,-0.055519,0.059064,0.014131,-17.338867,-39.939995,5.445576,,,,,,,
,,,,,,,,,,,,,,,,6.247250,-75.565274,1493.307163,4.810000,117.070312,1527543198.987841,
1527543199.393868,-0.033295,0.123310,1.885906,-0.079224,0.005392,-0.002899,-0.033036,-0.122998,-0.991857,-0.050139,0.019666,0.004659,-14.462799,-37.091026,1.757557,,,,,,,
,,,,,,,,,,,,,,,,6.247219,-75.565252,1493.852940,3.550000,123.750000,1527543199.987812,
1527543200.394246,-0.037839,0.129763,1.882161,-0.130892,0.054420,-0.017122,-0.037512,-0.129399,-0.990883,-0.051157,0.013615,-0.003243,-17.058334,-33.563927,2.759541,,,,,,,
,,,,,,,,,,,,,,,,6.247201,-75.565215,1493.847080,3.610000,120.234375,1527543200.987782,
1527543201.394628,-0.051272,0.133492,1.917910,0.035732,-0.008877,-0.001119,-0.050794,-0.133096,-0.989801,-0.039172,0.022897,0.040094,-17.200089,-32.514473,4.113163,,,,,,,
,,,,,,,,,,,,,,,,6.247187,-75.565224,1494.168369,3.550000,133.242188,1527543201.987752,
1527543202.394982,-0.055863,0.127469,1.920661,-0.083152,0.002984,-0.058557,-0.055381,-0.127124,-0.990339,0.017448,-0.000134,0.036452,-14.340958,-31.392723,4.920948,,,,,,,
,,,,,,,,,,,,,,,,6.247192,-75.565204,1493.885899,1.430000,118.828125,1527543202.987722,
1527543203.395329,-0.071276,0.115509,1.959728,-0.034555,-0.036939,0.076288,-0.070741,-0.115253,-0.990814,-0.063887,0.031161,0.004623,-12.126083,-26.595848,6.717442,,,,,,,
,,,,,,,,,,,,,,,,6.247179,-75.565200,1493.615025,1.370000,102.656250,1527543203.987692,
1527543204.395679,-0.063611,0.152614,1.925841,0.137043,0.003659,0.037642,-0.062829,-0.152023,-0.986378,0.071206,0.005645,0.052372,-19.738831,-39.714485,9.212925,,,,,,,
,,,,,,,,,,,,,,,,6.247170,-75.565208,1493.545567,0.240000,93.867188,1527543204.987662,
1527543205.396053,-0.081906,0.113755,1.978138,-0.042689,-0.028058,0.145510,-0.081285,-0.113509,-0.990206,0.013506,-0.042878,-0.007078,-26.234085,-45.033043,9.320103,,,,,,,
,,,,,,,,,,,,,,,,6.247169,-75.565202,1492.876621,0.220000,82.265625,1527543205.987633,
1527543206.396434,-0.080046,0.116610,1.985126,0.026591,-0.012135,-0.019505,-0.079417,-0.116345,-0.990029,0.029231,-0.028735,0.024910,-27.141388,-45.931801,8.649204,,,,,,,
,,,,,,,,,,,,,,,,6.247169,-75.565202,1492.994663,0.000000,82.968750,1527543206.987603,
1527543207.396788,-0.078952,0.122221,1.975020,-0.024737,0.024064,-0.048639,-0.078282,-0.121917,-0.989448,0.017979,-0.012497,0.000068,-21.606171,-38.886986,7.953068,,,,,,,
,,,,,,,,,,,,,,,,6.247169,-75.565202,1493.171299,0.000000,82.968750,1527543207.987573,
1527543208.397155,-0.066901,0.124419,1.921037,-0.060967,0.007193,-0.050545,-0.066334,-0.124099,-0.990050,-0.006725,-0.030534,-0.000306,-14.655502,-33.042946,5.969028,,,,,,,
,,,,,,,,,,,,,,,,6.247169,-75.565202,1493.178867,0.000000,82.968750,1527543208.987543,
1527543209.397538,-0.057300,0.112597,1.862587,-0.023446,-0.041519,0.016749,-0.056906,-0.112359,-0.992037,0.020133,-0.006293,0.001741,-5.031097,-21.501289,3.380512,,,,,,,
,,,,,,,,,,,,,,,,6.247169,-75.565202,1493.189365,0.000000,82.968750,1527543209.987514,
1527543210.397892,-0.054853,0.108667,1.853775,-0.023593,-0.015102,-0.015380,-0.054502,-0.108453,-0.992606,0.017667,-0.004813,0.005943,-6.937042,-25.025337,5.335041,,,,,,,
,,,,,,,,,,,,,,,,6.247169,-75.565202,1493.175694,0.000000,82.968750,1527543210.988829,
1527543211.398272,-0.049904,0.108837,1.858197,-0.004523,-0.004513,-0.009597,-0.049589,-0.108622,-0.992846,0.007657,-0.010442,0.013643,-9.525574,-29.523048,5.941914,,,,,,,
,,,,,,,,,,,,,,,,6.247169,-75.565202,1493.155186,0.000000,82.968750,1527543211.989385,
1527543212.398617,-0.051789,0.103038,1.876922,-0.016492,0.000897,0.000777,-0.051491,-0.102855,-0.993363,0.007637,-0.014988,0.013138,-10.433670,-30.496956,5.570835,,,,,,,
,,,,,,,,,,,,,,,,6.247169,-75.565202,1493.104893,0.000000,82.968750,1527543212.990054,
1527543213.398971,-0.054644,0.100967,1.884655,0.000498,-0.045945,-0.002942,-0.054338,-0.100795,-0.993422,-0.001310,-0.002735,-0.011369,-14.462967,-36.868095,5.883121,,,,,,,
,,,,,,,,,,,,,,,,6.247169,-75.565202,1493.060947,0.000000,82.968750,1527543213.990691,
1527543214.399349,-0.056422,0.099664,1.896119,0.021456,-0.001079,0.058344,-0.056112,-0.099500,-0.993454,-0.011637,-0.005420,-0.005798,-12.712433,-34.018532,3.252979,,,,,,,
,,,,,,,,,,,,,,,,6.247169,-75.565202,1492.992466,0.000000,82.968750,1527543214.991281,
1527543215.399729,-0.056667,0.096423,1.897041,-0.015977,0.010598,0.024278,-0.056373,-0.096273,-0.993757,0.002464,-0.014246,0.006636,-9.380417,-30.048576,6.689579,,,,,,,
,,,,,,,,,,,,,,,,6.247169,-75.565202,1492.892979,0.000000,82.968750,1527543215.991841,
1527543216.400047,-0.058827,0.095663,1.904507,0.011663,-0.013091,-0.017707,-0.058524,-0.095517,-0.993706,0.003349,-0.006885,0.020195,-12.716278,-34.245430,7.077442,,,,,,,
,,,,,,,,,,,,,,,,6.247169,-75.565202,1492.845737,0.000000,82.968750,1527543216.992370,
1527543217.400423,-0.062661,0.094594,1.912753,-0.006973,-0.008667,0.003190,-0.062340,-0.094453,-0.993576,0.001091,0.000032,-0.000413,-11.880966,-33.046150,6.849598,,,,,,,
,,,,,,,,,,,,,,,,6.247169,-75.565202,1492.794590,0.000000,82.968750,1527543217.992858,
1527543218.400775,-0.058468,0.094023,1.915061,0.006442,0.006029,-0.020038,-0.058177,-0.093884,-0.993882,-0.000524,-0.011508,0.004166,-15.070221,-37.618340,7.610493,,,,,,,
,,,,,,,,,,,,,,,,6.247169,-75.565202,1492.795078,0.000000,82.968750,1527543218.993303,
1527543219.401154,-0.059565,0.094368,1.916862,0.002435,-0.004446,0.009803,-0.059265,-0.094228,-0.993785,-0.002320,-0.004816,0.002742,-16.437378,-39.641945,7.539997,,,,,,,
,,,,,,,,,,,,,,,,6.247169,-75.565202,1492.762363,0.000000,82.968750,1527543219.993710,
1527543220.401501,-0.060833,0.095510,1.919978,0.000512,-0.031072,-0.001923,-0.060519,-0.095365,-0.993601,0.005801,-0.003467,0.001505,-14.913727,-36.868385,7.386265,,,,,,,
,,,,,,,,,,,,,,,,6.247169,-75.565202,1492.739292,0.000000,82.968750,1527543220.994108,
1527543221.401878,-0.063075,0.097102,1.927633,0.002281,-0.002285,0.016204,-0.062737,-0.096949,-0.993310,-0.005028,-0.011815,0.003854,-16.663803,-39.791862,7.841206,,,,,,,
,,,,,,,,,,,,,,,,6.247169,-75.565202,1492.700840,0.000000,82.968750,1527543221.994480,
1527543222.402232,-0.064394,0.099005,1.924131,0.014781,-0.020562,-0.016555,-0.064034,-0.098843,-0.993041,0.003914,-0.006794,0.001082,-16.279800,-38.742180,7.691151,,,,,,,
,,,,,,,,,,,,,,,,6.247169,-75.565202,1492.717197,0.000000,82.968750,1527543222.994825,
1527543223.402609,-0.065142,0.099804,1.926773,0.014992,-0.006570,0.018667,-0.064772,-0.099639,-0.992913,0.006910,-0.006272,-0.001426,-14.153900,-35.743889,6.858768,,,,,,,
,,,,,,,,,,,,,,,,6.247169,-75.565202,1492.766148,0.000000,82.968750,1527543223.995145,
1527543224.402956,-0.065614,0.099937,1.933717,-0.019408,-0.000199,-0.009971,-0.065240,-0.099771,-0.992869,-0.005881,-0.007041,0.001369,-11.257355,-30.271736,6.777164,,,,,,,
,,,,,,,,,,,,,,,,6.247169,-75.565202,1492.801792,0.000000,82.968750,1527543224.995444,
1527543225.403335,-0.064231,0.095660,1.942352,0.041060,0.020686,-0.038461,-0.063894,-0.095514,-0.993375,-0.003184,-0.001822,-0.001971,-13.308594,-33.344810,7.008839,,,,,,,
,,,,,,,,,,,,,,,,6.247169,-75.565202,1492.753941,0.000000,82.968750,1527543225.995725,
1527543226.403671,-0.060737,0.096847,1.937771,-0.004811,0.003008,0.003204,-0.060415,-0.096695,-0.993479,-0.008432,-0.008194,-0.000906,-10.952286,-29.672081,6.851536,,,,,,,
,,,,,,,,,,,,,,,,6.247169,-75.565202,1492.802525,0.000000,210.937500,1527543226.995985,
1527543227.404049,-0.063325,0.097425,1.936658,-0.005501,-0.010874,-0.012791,-0.062982,-0.097271,-0.993263,-0.004934,-0.004185,0.001335,-8.905365,-27.123863,6.318577,,,,,,,
,,,,,,,,,,,,,,,,6.247169,-75.565202,1492.815952,0.000000,210.937500,1527543227.996227,
1527543228.404399,-0.065949,0.098481,1.935521,0.007600,-0.018229,0.015327,-0.065582,-0.098322,-0.992991,-0.009293,-0.003378,-0.003774,-10.125000,-29.447533,6.096302,,,,,,,
,,,,,,,,,,,,,,,,6.247169,-75.565202,1492.883579,0.000000,210.937500,1527543228.996450,
1527543229.404752,-0.068345,0.097689,1.937757,-0.005228,0.001848,-0.021362,-0.067966,-0.097533,-0.992909,-0.006191,-0.003922,-0.003582,-12.626923,-32.595192,6.405949,,,,,,,
,,,,,,,,,,,,,,,,6.247169,-75.565202,1492.923496,0.000000,210.937500,1527543229.996659,
1527543230.405126,-0.066678,0.097453,1.938542,0.018579,0.009341,0.006981,-0.066313,-0.097299,-0.993044,-0.007647,-0.010215,0.007814,-13.383545,-33.344688,6.934376,,,,,,,
,,,,,,,,,,,,,,,,6.247169,-75.565202,1492.896763,0.000000,210.937500,1527543230.996851,
1527543231.405476,-0.066406,0.097292,1.940938,-0.006910,0.004106,0.003166,-0.066044,-0.097139,-0.993077,-0.001629,-0.008421,0.010457,-12.543701,-31.620338,6.557804,,,,,,,
,,,,,,,,,,,,,,,,6.247169,-75.565202,1492.967319,0.000000,210.937500,1527543231.997031,
1527543232.405825,-0.072968,0.100847,1.951614,-0.008724,-0.002317,-0.009674,-0.072532,-0.100676,-0.992272,-0.004921,-0.001176,0.011086,-17.332199,-39.040977,7.397770,,,,,,,
,,,,,,,,,,,,,,,,6.247169,-75.565202,1492.993565,0.000000,210.937500,1527543232.997196,
1527543233.406177,-0.067884,0.096803,1.943855,-0.022936,-0.005387,0.003873,-0.067515,-0.096652,-0.993026,-0.005697,-0.009641,0.007079,-17.106522,-38.966164,7.321369,,,,,,,
,,,,,,,,,,,,,,,,6.247169,-75.565202,1493.021397,0.000000,210.937500,1527543233.997349,
1527543234.406529,-0.068046,0.096802,1.944545,-0.019733,-0.004331,0.003952,-0.067675,-0.096651,-0.993015,-0.005796,-0.004256,0.008991,-16.872452,-37.916252,7.022358,,,,,,,
