timestamp(unix),attitude_roll(radians),attitude_pitch(radians),attitude_yaw(radians),rotation_rate_x(radians/s),rotation_rate_y(radians/s),rotation_rate_z(radians/s),gravity_x(G),gravity_y(G),gravity_z(G),user_acc_x(G),user_acc_y(G),user_acc_z(G),magnetic_field_x(microteslas),magnetic_field_y(microteslas),magnetic_field_z(microteslas),latitude(degree),longitude(degree),altitude(meter),speed(m/s),course(degree),timestamp(unix),User Mark
,,,,,,,,,,,,,,,,6.233328,-75.540298,1632.854649,0.000000,123.398438,1527545826.999132,
,,,,,,,,,,,,,,,,6.233328,-75.540298,1632.857334,0.000000,123.398438,1527545827.999115,
1527545828.225572,0.136597,0.027552,1.699346,1.888111,2.656754,0.438862,0.136121,-0.027548,-0.990309,0.043567,0.136877,-0.454301,-2.002481,-40.324745,-24.520481,,,,,,,
,,,,,,,,,,,,,,,,6.233328,-75.540298,1632.807529,0.000000,123.398438,1527545828.999099,
1527545829.226014,0.422825,0.282539,1.792623,-1.060979,-0.285403,-0.823715,0.394068,-0.278795,-0.875776,0.004735,-0.047957,-0.102099,-1.587870,-44.004280,-16.282581,,,,,,,
,,,,,,,,,,,,,,,,6.233328,-75.540298,1632.811436,0.000000,123.398438,1527545829.999082,
1527545830.226446,0.538435,0.243426,1.819911,0.273212,-0.362338,0.149341,0.497674,-0.241029,-0.833202,0.019064,0.033388,-0.042699,0.969625,-43.255699,-18.548618,,,,,,,
,,,,,,,,,,,,,,,,6.233328,-75.540298,1632.785557,0.000000,123.398438,1527545830.999065,
1527545831.226871,0.357047,0.437374,1.669134,0.251376,-1.628886,0.000702,0.316609,-0.423562,-0.848737,0.044048,-0.012519,-0.014041,-0.250895,-44.985298,-6.919392,,,,,,,
,,,,,,,,,,,,,,,,6.233328,-75.540298,1632.768711,0.000000,123.398438,1527545831.999048,
1527545832.228272,0.102002,0.601331,1.562754,-0.332926,0.247104,0.186176,0.083964,-0.565740,-0.820297,0.015905,-0.016413,0.065232,0.846029,-47.840202,0.715786,,,,,,,
,,,,,,,,,,,,,,,,6.233328,-75.540298,1632.355869,0.000000,66.445312,1527545832.999030,
1527545833.228769,0.699836,-0.094524,1.929034,0.804431,-0.273881,-0.030208,0.641217,0.094383,-0.761533,0.036426,0.020485,-0.047884,9.674658,-34.707039,-33.288181,,,,,,,
,,,,,,,,,,,,,,,,6.233319,-75.540294,1632.068760,0.280000,30.234375,1527545833.999011,
1527545834.230155,0.219952,0.498644,1.982061,-0.098525,-0.063493,-0.105282,0.191615,-0.478235,-0.857073,-0.014903,-0.011847,0.080370,-15.411234,-46.319130,-8.916599,,,,,,,
,,,,,,,,,,,,,,,,6.233323,-75.540293,1631.504307,0.450000,20.390625,1527545834.998992,
1527545835.230591,1.274104,0.355727,1.852724,0.227991,0.163756,0.112530,0.896437,-0.348271,-0.274055,-0.069625,0.084813,0.007942,8.736166,-47.014977,-15.537373,,,,,,,
,,,,,,,,,,,,,,,,6.233332,-75.540304,1630.578526,1.560000,335.742188,1527545835.998973,
1527545836.231009,1.305243,0.373520,1.802266,0.066349,-0.086882,0.025953,0.898413,-0.364895,-0.244347,0.006891,0.026714,-0.019843,8.989416,-43.417549,-10.880161,,,,,,,
,,,,,,,,,,,,,,,,6.233334,-75.540318,1629.697178,1.560000,321.679688,1527545836.998952,
1527545837.231439,0.693752,0.002173,1.899771,-0.065960,0.311913,-0.037179,0.639425,-0.002173,-0.768850,-0.040441,0.000845,0.083273,7.778494,-36.882805,-27.955341,,,,,,,
,,,,,,,,,,,,,,,,6.233330,-75.540327,1628.223057,0.730000,306.562500,1527545837.998932,
1527545838.231882,0.820312,0.072066,1.872905,-0.056371,0.136581,-0.019355,0.729460,-0.072004,-0.680223,0.020327,-0.053438,-0.065078,10.955496,-42.213661,-22.590916,,,,,,,
,,,,,,,,,,,,,,,,6.233332,-75.540332,1627.115635,0.730000,319.570312,1527545838.998912,
1527545839.232314,0.832705,0.092992,1.882446,0.110971,0.083857,-0.236251,0.736557,-0.092858,-0.669969,0.013015,0.053888,0.040574,11.579992,-39.364021,-23.113163,,,,,,,
,,,,,,,,,,,,,,,,6.233338,-75.540338,1627.237217,1.070000,320.625000,1527545839.998891,
1527545840.232838,0.839269,0.095181,1.908234,0.081661,-0.016407,0.103052,0.740785,-0.095037,-0.664982,-0.030764,0.085562,0.000187,7.935003,-35.463509,-16.852894,,,,,,,
,,,,,,,,,,,,,,,,6.233348,-75.540356,1627.572666,1.960000,315.000000,1527545840.998871,
1527545841.233278,0.848727,0.095330,1.910363,0.032939,0.007394,-0.070206,0.747030,-0.095186,-0.657936,-0.056753,0.047151,-0.024788,7.286154,-32.387871,-16.840656,,,,,,,
,,,,,,,,,,,,,,,,6.233362,-75.540378,1628.286533,2.400000,309.023438,1527545841.998849,
1527545842.233701,0.857122,0.093165,1.714804,0.194792,0.009769,-0.107914,0.752681,-0.093031,-0.651775,-0.003581,-0.024874,0.099223,9.246237,-30.818090,-10.325459,,,,,,,
,,,,,,,,,,,,,,,,6.233376,-75.540404,1629.792881,2.370000,307.617188,1527545842.998828,
1527545843.234135,0.865854,0.101438,1.677112,-0.127281,-0.120446,0.177295,0.757731,-0.101264,-0.644656,-0.060969,0.129463,0.040683,12.462164,-32.168892,-15.151340,,,,,,,
,,,,,,,,,,,,,,,,6.233390,-75.540427,1629.598057,2.370000,307.617188,1527545843.998806,
1527545844.234569,0.847129,0.100385,1.672588,0.072698,0.045687,-0.036212,0.745607,-0.100216,-0.658802,-0.015886,0.095334,0.099583,12.455984,-32.993065,-16.803364,,,,,,,
,,,,,,,,,,,,,,,,6.233401,-75.540448,1628.588535,2.330000,310.078125,1527545844.998784,
1527545845.235017,0.910419,0.094143,1.656244,-0.037193,-0.268051,0.052808,0.786261,-0.094004,-0.610696,0.004068,-0.025381,-0.062949,11.343298,-31.194906,-10.866077,,,,,,,
,,,,,,,,,,,,,,,,6.233413,-75.540466,1627.198643,2.280000,313.242188,1527545845.998763,
1527545846.235461,0.903555,0.124505,1.633334,0.067766,0.106740,-0.166830,0.779448,-0.124184,-0.614029,-0.103804,0.066597,0.111557,11.195059,-30.821188,-8.014103,,,,,,,
,,,,,,,,,,,,,,,,6.233426,-75.540483,1626.373447,2.410000,311.132812,1527545846.998739,
1527545847.235875,0.949128,0.143925,1.607867,0.139146,0.139448,-0.161962,0.804500,-0.143429,-0.576369,0.005696,-0.051945,0.048506,7.561209,-26.091604,-9.926853,,,,,,,
,,,,,,,,,,,,,,,,6.233439,-75.540499,1626.271885,2.410000,310.781250,1527545847.998717,
1527545848.236290,0.955540,0.178435,1.615529,0.100674,0.130468,-0.075267,0.803657,-0.177490,-0.568002,-0.009009,0.125076,0.021463,10.133413,-30.980413,12.542934,,,,,,,
,,,,,,,,,,,,,,,,6.233453,-75.540518,1626.298252,2.480000,308.671875,1527545848.998695,
1527545849.236709,0.822958,0.206141,1.606483,-0.206291,-0.449634,0.598336,0.717636,-0.204685,-0.665656,-0.120270,0.053211,0.061621,-2.645090,1.428370,20.513393,,,,,,,
,,,,,,,,,,,,,,,,6.233467,-75.540535,1628.339268,2.570000,307.968750,1527545849.998672,
1527545850.237148,0.936027,0.254048,1.441457,-0.074621,-0.076424,0.292823,0.779361,-0.251324,-0.573957,-0.072971,0.207684,-0.047030,-3.047617,-1.275763,29.584454,,,,,,,
,,,,,,,,,,,,,,,,6.233484,-75.540558,1628.728916,3.220000,306.914062,1527545850.998649,
1527545851.237536,0.986349,0.272219,1.296485,0.095092,0.048420,0.090439,0.803303,-0.268870,-0.531420,0.046444,-0.145635,-0.015379,10.165182,9.432795,36.043743,,,,,,,
,,,,,,,,,,,,,,,,6.233504,-75.540586,1628.440342,3.830000,307.265625,1527545851.998626,
1527545852.237982,1.035870,0.266663,1.281012,-0.171836,0.234473,-0.111070,0.829896,-0.263513,-0.491758,0.025344,-0.115866,-0.053591,-5.272806,11.244852,42.831341,,,,,,,
,,,,,,,,,,,,,,,,6.233525,-75.540616,1628.248447,3.660000,306.914062,1527545852.998602,
1527545853.238416,1.082477,0.252684,1.306545,-0.315947,-0.098974,0.269888,0.855074,-0.250004,-0.454242,0.005781,-0.058270,0.033085,-12.277689,7.652506,41.521389,,,,,,,
,,,,,,,,,,,,,,,,6.233547,-75.540646,1627.497471,3.680000,307.265625,1527545853.998580,
1527545854.238799,0.885785,0.252904,1.414512,-0.400322,-0.159979,-0.102716,0.749775,-0.250217,-0.612554,0.186306,0.010455,0.040075,-23.531885,8.105692,57.651287,,,,,,,
,,,,,,,,,,,,,,,,6.233569,-75.540677,1626.824619,3.680000,309.726562,1527545854.998556,
1527545855.239248,0.663627,0.286847,1.758526,-0.406931,0.417576,0.190349,0.590808,-0.282929,-0.755574,0.030225,-0.010619,-0.188289,0.873800,3.054911,60.392818,,,,,,,
,,,,,,,,,,,,,,,,6.233591,-75.540709,1626.483067,3.860000,308.671875,1527545855.998532,
1527545856.239631,0.679964,0.286048,1.758225,-0.085342,-0.045126,-0.279071,0.603215,-0.282163,-0.745997,0.059825,0.001660,0.007213,1.176641,2.834330,50.940151,,,,,,,
,,,,,,,,,,,,,,,,6.233612,-75.540739,1626.285313,3.860000,307.968750,1527545856.998509,
1527545857.240042,0.736855,0.298208,1.672618,0.035707,0.030972,0.161707,0.642304,-0.293808,-0.707899,-0.040146,-0.050171,0.062879,0.325399,-0.611776,44.862514,,,,,,,
,,,,,,,,,,,,,,,,6.233630,-75.540768,1626.181065,3.560000,304.453125,1527545857.998485,
1527545858.240474,0.741138,0.289746,1.650668,-0.142916,-0.374437,-0.072277,0.646986,-0.285709,-0.706950,-0.047605,-0.050046,-0.003911,5.896215,1.783121,43.929501,,,,,,,
,,,,,,,,,,,,,,,,6.233646,-75.540797,1625.330235,3.560000,305.156250,1527545858.998461,
1527545859.240894,0.764474,0.326837,1.411993,0.577816,0.349417,0.502074,0.655516,-0.321049,-0.683539,-0.037993,-0.014278,0.071631,7.044638,-5.110998,29.879223,,,,,,,
,,,,,,,,,,,,,,,,6.233662,-75.540822,1625.816319,3.560000,307.617188,1527545859.998437,
1527545860.241289,0.675683,0.320722,1.234458,0.090944,-0.172684,-0.148305,0.593538,-0.315251,-0.740492,-0.027697,-0.028651,-0.018617,8.978460,-7.285635,25.285244,,,,,,,
,,,,,,,,,,,,,,,,6.233678,-75.540847,1626.036045,3.510000,307.265625,1527545860.998413,
1527545861.241693,0.625421,0.510038,1.099595,0.387401,0.557412,0.063076,0.510927,-0.488210,-0.707534,-0.013048,0.066839,0.070403,11.804663,-1.288229,24.830456,,,,,,,
,,,,,,,,,,,,,,,,6.233697,-75.540876,1626.296787,3.820000,307.968750,1527545861.998389,
1527545862.242108,0.568966,-0.218882,0.882565,1.356786,-1.219820,-0.707240,0.525906,0.217138,-0.822358,-0.044842,-0.108373,-0.047424,8.565451,-11.859365,23.551708,,,,,,,
,,,,,,,,,,,,,,,,6.233716,-75.540904,1625.756260,3.730000,305.859375,1527545862.998365,
1527545863.242519,0.209233,0.082318,0.845456,0.036435,-0.153936,-0.055670,0.207006,-0.082225,-0.974878,-0.065817,0.017390,0.106043,17.153997,-6.995733,29.128750,,,,,,,
,,,,,,,,,,,,,,,,6.233735,-75.540934,1625.395908,3.820000,305.507812,1527545863.998341,
1527545864.242924,0.334578,0.167077,0.773114,0.174151,0.606207,-0.130304,0.323798,-0.166300,-0.931396,-0.033637,0.180964,0.074890,9.745443,-4.964148,30.760677,,,,,,,
,,,,,,,,,,,,,,,,6.233753,-75.540961,1626.767246,3.730000,303.750000,1527545864.998317,
1527545865.243320,0.499404,0.266765,0.713925,0.185247,0.074840,0.112923,0.461962,-0.263612,-0.846817,-0.025927,0.011186,0.029129,11.885504,-9.686102,20.383892,,,,,,,
,,,,,,,,,,,,,,,,6.233769,-75.540989,1625.786777,3.650000,305.156250,1527545865.998293,
1527545866.243717,0.512661,0.264836,0.700534,-0.410350,0.231641,-0.030310,0.473396,-0.261751,-0.841060,-0.068138,-0.035109,-0.105763,6.479681,-19.651800,12.596828,,,,,,,
,,,,,,,,,,,,,,,,6.233787,-75.541021,1625.642979,3.970000,304.453125,1527545866.998267,
1527545867.244103,0.492866,0.250619,0.712074,-0.058474,-0.113760,0.036990,0.458371,-0.248003,-0.853457,-0.064267,-0.091596,-0.012326,4.980581,-19.426321,14.632885,,,,,,,
,,,,,,,,,,,,,,,,6.233806,-75.541057,1626.236240,3.970000,301.640625,1527545867.998243,
1527545868.244516,0.567280,0.249578,0.600975,0.314203,-0.317852,-0.106072,0.520691,-0.246995,-0.817235,0.117126,-0.142226,-0.018946,11.200659,-1.812185,23.933376,,,,,,,
,,,,,,,,,,,,,,,,6.233829,-75.541094,1626.341709,4.450000,301.640625,1527545868.998219,
1527545869.244905,0.590244,0.270948,0.554539,-0.169488,0.310778,-0.395344,0.536258,-0.267645,-0.800495,0.105084,-0.192163,-0.195309,12.261206,-0.315420,28.279705,,,,,,,
,,,,,,,,,,,,,,,,6.233853,-75.541131,1626.017490,4.690000,303.046875,1527545869.998195,
1527545870.245316,0.598395,0.277511,0.501350,0.193318,-0.121582,-0.060444,0.541764,-0.273963,-0.794628,0.055907,-0.119805,0.043194,14.256491,5.007624,28.204037,,,,,,,
,,,,,,,,,,,,,,,,6.233875,-75.541162,1624.657139,3.720000,307.265625,1527545870.998170,
1527545871.245704,0.633673,0.284151,0.430901,0.492990,-0.204484,-0.041110,0.568365,-0.280342,-0.773543,0.127482,-0.114204,0.041060,8.309546,1.942682,19.988003,,,,,,,
,,,,,,,,,,,,,,,,6.233896,-75.541190,1625.014561,3.830000,306.210938,1527545871.998147,
1527545872.246097,0.564975,0.328100,0.494210,0.288849,-0.029081,-0.199379,0.506834,-0.322245,-0.799547,-0.066618,0.075037,0.103884,2.114965,-2.483084,33.895306,,,,,,,
,,,,,,,,,,,,,,,,6.233920,-75.541220,1625.655186,3.830000,307.968750,1527545872.998122,
1527545873.246509,0.615957,0.351711,0.458220,0.080046,-0.023210,-0.033576,0.542373,-0.344505,-0.766255,0.069673,-0.011269,-0.038021,7.616613,0.438242,30.264095,,,,,,,
,,,,,,,,,,,,,,,,6.233946,-75.541255,1626.122471,4.370000,304.804688,1527545873.998097,
1527545874.246891,0.564076,0.392883,0.440169,-0.285499,0.061441,-0.183794,0.493901,-0.382854,-0.780695,0.025524,0.100383,-0.078162,2.209249,8.765497,36.547756,,,,,,,
,,,,,,,,,,,,,,,,6.233972,-75.541290,1625.959873,4.480000,305.859375,1527545874.998072,
1527545875.247265,0.602376,0.398706,0.423415,0.196938,0.113908,-0.376174,0.522160,-0.388227,-0.759361,0.125149,-0.130908,-0.088661,0.892965,13.262308,45.568218,,,,,,,
,,,,,,,,,,,,,,,,6.233995,-75.541324,1624.826328,4.400000,304.804688,1527545875.998047,
1527545876.247689,0.605823,0.395864,0.438474,-0.250040,-0.036946,0.371833,0.525400,-0.385606,-0.758461,-0.116617,0.161866,0.145424,1.329031,11.983805,51.711956,,,,,,,
,,,,,,,,,,,,,,,,6.234015,-75.541355,1623.381748,4.400000,306.914062,1527545876.998024,
1527545877.248090,0.606766,0.391232,0.438317,-0.381986,-0.106201,0.232052,0.527129,-0.381328,-0.759424,-0.015288,-0.004903,-0.066397,6.344030,10.332819,43.647732,,,,,,,
,,,,,,,,,,,,,,,,6.234035,-75.541383,1623.689121,3.840000,307.968750,1527545877.997998,
1527545878.248468,0.629703,0.390096,0.409836,-0.000417,0.060851,-0.082781,0.544662,-0.380277,-0.747484,-0.033981,0.061460,0.083818,6.897818,13.856104,45.977673,,,,,,,
,,,,,,,,,,,,,,,,6.234056,-75.541411,1623.250645,3.840000,308.320312,1527545878.997974,
1527545879.248845,0.651082,0.392651,0.388690,0.266214,0.152955,-0.164114,0.559926,-0.382639,-0.734895,-0.025441,-0.071600,0.041703,7.868292,3.810999,34.245770,,,,,,,
,,,,,,,,,,,,,,,,6.234078,-75.541438,1622.662266,3.930000,308.320312,1527545879.997949,
1527545880.249260,0.607980,0.403289,0.444047,-0.162516,0.567276,-0.547578,0.525386,-0.392445,-0.754955,-0.067683,0.046605,-0.086888,4.710775,2.914255,34.040630,,,,,,,
,,,,,,,,,,,,,,,,6.234097,-75.541465,1621.952549,3.670000,307.265625,1527545880.997924,
1527545881.249643,0.629119,0.416163,0.382674,-0.036860,0.243581,-0.132261,0.538208,-0.404254,-0.739534,-0.017929,-0.066922,0.015016,1.272497,4.267908,33.618069,,,,,,,
,,,,,,,,,,,,,,,,6.234114,-75.541488,1621.352940,3.670000,307.617188,1527545881.997900,
1527545882.250008,0.605896,0.407271,0.419286,-0.063012,0.407433,-0.336354,0.522916,-0.396105,-0.754757,-0.049192,-0.042829,-0.099430,-4.458841,0.301020,28.848278,,,,,,,
,,,,,,,,,,,,,,,,6.234131,-75.541510,1621.414463,3.350000,307.968750,1527545882.997874,
1527545883.250409,0.609545,0.403788,0.398732,-0.023961,0.057132,0.004267,0.526454,-0.392904,-0.753971,-0.025645,-0.009287,0.048893,1.232962,-0.158957,37.432293,,,,,,,
,,,,,,,,,,,,,,,,6.234148,-75.541532,1621.223545,3.320000,309.023438,1527545883.997850,
1527545884.250826,0.588136,0.415324,0.427013,0.230383,0.484223,-0.051610,0.507644,-0.403486,-0.761246,0.011124,-0.084292,-0.066100,1.633734,2.692163,34.361614,,,,,,,
,,,,,,,,,,,,,,,,6.234166,-75.541556,1621.159824,3.320000,307.968750,1527545884.997825,
1527545885.251181,0.566899,0.380104,0.461800,-0.030896,0.080921,-0.136989,0.498689,-0.371017,-0.783362,-0.022508,-0.023514,0.027517,0.145941,4.341852,37.976147,,,,,,,
,,,,,,,,,,,,,,,,6.234187,-75.541584,1621.384678,3.630000,307.265625,1527545885.997800,
1527545886.251597,0.576419,0.373180,0.461516,0.265400,-0.193434,0.070834,0.507512,-0.364579,-0.780713,0.031489,-0.042679,0.019727,-3.810511,16.188654,52.283443,,,,,,,
,,,,,,,,,,,,,,,,6.234207,-75.541611,1621.117832,3.630000,306.914062,1527545886.997776,
1527545887.251974,0.575618,0.369268,0.476366,0.371557,0.013628,0.113444,0.507659,-0.360933,-0.782310,-0.150817,0.060274,0.213981,-3.109369,19.634790,58.587154,,,,,,,
,,,,,,,,,,,,,,,,6.234230,-75.541638,1620.314854,3.520000,307.265625,1527545887.997751,
1527545888.252336,0.583928,0.356442,0.470259,0.147078,0.217489,-0.327449,0.516652,-0.348942,-0.781863,0.011943,0.083103,-0.059720,-7.402262,17.315912,54.936413,,,,,,,
,,,,,,,,,,,,,,,,6.234253,-75.541663,1619.281651,3.470000,306.914062,1527545888.997725,
1527545889.252752,0.588636,0.366844,0.456773,-0.131379,0.236424,0.063103,0.518284,-0.358671,-0.776361,-0.136387,0.114149,0.181543,0.324636,-1.207464,36.236019,,,,,,,
,,,,,,,,,,,,,,,,6.234278,-75.541688,1617.922520,3.440000,306.914062,1527545889.997701,
1527545890.253106,0.625009,0.353449,0.414523,0.239627,0.251806,-0.192800,0.548936,-0.346136,-0.760828,0.044707,-0.213664,-0.015341,-6.745661,14.917261,50.950817,,,,,,,
,,,,,,,,,,,,,,,,6.234299,-75.541711,1618.085361,3.250000,306.914062,1527545890.997676,
1527545891.253518,0.640342,0.345615,0.394267,0.387422,0.315008,-0.628447,0.562139,-0.338776,-0.754472,0.139628,-0.011032,-0.054075,1.156469,8.763773,42.105129,,,,,,,
,,,,,,,,,,,,,,,,6.234322,-75.541733,1617.944248,3.450000,308.320312,1527545891.997651,
1527545892.253881,0.656005,0.332867,0.333720,0.383970,0.044714,-0.696139,0.576475,-0.326754,-0.748937,0.062456,0.062396,-0.152323,-1.366205,12.214289,46.106411,,,,,,,
,,,,,,,,,,,,,,,,6.234343,-75.541755,1616.708164,3.250000,310.078125,1527545892.997626,
1527545893.254286,0.673159,0.351405,0.214247,0.238849,0.265493,-0.657583,0.585359,-0.344217,-0.734076,0.170103,0.026269,-0.250863,2.453436,2.537378,42.305477,,,,,,,
,,,,,,,,,,,,,,,,6.234367,-75.541776,1616.874668,3.450000,314.296875,1527545893.997602,
1527545894.254668,0.676859,0.362523,0.038855,-0.061835,-0.159402,0.247552,0.585638,-0.354635,-0.728877,-0.058966,0.058736,0.125148,8.467428,4.255747,43.542675,,,,,,,
,,,,,,,,,,,,,,,,6.234393,-75.541797,1617.836338,3.360000,317.460938,1527545894.997576,
1527545895.255045,0.709139,0.396272,-0.153971,-0.056840,-0.216989,0.211517,0.600718,-0.385982,-0.700111,-0.016505,0.006679,0.002982,11.085424,12.798517,52.770702,,,,,,,
,,,,,,,,,,,,,,,,6.234419,-75.541813,1614.993565,3.490000,324.843750,1527545895.997551,
1527545896.255427,0.735699,0.391031,-0.346130,0.432462,-0.100768,-0.197748,0.620448,-0.381141,-0.685401,0.071996,0.109642,0.015037,9.733725,22.019785,62.928219,,,,,,,
,,,,,,,,,,,,,,,,6.234449,-75.541823,1613.891514,3.490000,331.875000,1527545896.997526,
1527545897.255810,0.787023,0.390564,-0.599651,0.119084,-0.189773,0.044823,0.654919,-0.380710,-0.652794,0.109851,-0.111554,0.052575,9.832327,33.867577,67.157150,,,,,,,
,,,,,,,,,,,,,,,,6.234480,-75.541831,1613.646397,3.440000,338.554688,1527545897.997501,
1527545898.256195,0.797568,0.395139,-0.769510,0.194860,-0.198356,-0.127441,0.660513,-0.384937,-0.644629,-0.001394,-0.010266,-0.002313,3.075705,51.641624,82.548874,,,,,,,
,,,,,,,,,,,,,,,,6.234513,-75.541838,1614.349277,3.310000,342.421875,1527545898.997477,
1527545899.256590,0.824091,0.381502,-0.998256,0.461823,0.067353,-0.571430,0.681165,-0.372315,-0.630393,0.056734,-0.137924,0.027350,1.939230,68.289787,88.523453,,,,,,,
,,,,,,,,,,,,,,,,6.234546,-75.541837,1615.007725,3.270000,354.375000,1527545899.997451,
1527545900.256968,0.804303,0.377228,-1.096088,0.456601,0.029469,-0.497734,0.669699,-0.368345,-0.644844,0.067239,-0.176622,-0.076805,10.662039,70.757896,84.868561,,,,,,,
,,,,,,,,,,,,,,,,6.234580,-75.541827,1614.803379,3.570000,10.195312,1527545900.997426,
1527545901.257352,0.809669,0.402273,-1.159969,0.259742,0.077955,-0.086035,0.666260,-0.391510,-0.634679,-0.003952,0.009324,-0.040843,15.286047,76.082024,77.349503,,,,,,,
,,,,,,,,,,,,,,,,6.234617,-75.541809,1615.247715,3.960000,23.906250,1527545901.997400,
1527545902.261662,0.112756,-0.370814,-1.039137,2.918258,0.152844,1.031214,0.104870,0.362374,-0.926114,0.076954,-0.119607,-0.024493,64.217979,18.058222,77.086929,,,,,,,
,,,,,,,,,,,,,,,,6.234654,-75.541787,1615.729160,3.960000,27.421875,1527545902.997377,
1527545903.262032,0.029832,0.394207,-1.141882,0.217112,-0.890557,0.489374,0.027539,-0.384076,-0.922891,0.143390,0.123319,0.081918,39.991188,31.689783,12.415600,,,,,,,
,,,,,,,,,,,,,,,,6.234686,-75.541765,1615.813633,3.960000,28.828125,1527545903.997351,
1527545904.262437,0.331081,0.311975,-1.158988,0.307636,0.169557,0.425550,0.309374,-0.306939,-0.900042,-0.186663,0.074059,0.232134,43.597694,23.809671,15.445660,,,,,,,
,,,,,,,,,,,,,,,,6.234717,-75.541745,1615.586826,3.750000,30.234375,1527545904.997326,
1527545905.262805,0.417587,0.326822,-1.141955,0.836780,0.389566,-0.027908,0.384088,-0.321034,-0.865686,-0.096872,-0.164882,0.083322,40.568001,19.990458,9.907314,,,,,,,
,,,,,,,,,,,,,,,,6.234752,-75.541723,1615.187901,3.990000,31.289062,1527545905.997301,
1527545906.263172,0.428407,0.287403,-1.124499,0.214637,0.227611,-0.383495,0.398383,-0.283463,-0.872319,0.081308,-0.003128,-0.111690,39.417809,26.585382,22.381847,,,,,,,
,,,,,,,,,,,,,,,,6.234786,-75.541702,1614.787510,3.990000,31.640625,1527545906.997276,
1527545907.263559,0.439263,0.296553,-1.106871,-0.276642,0.171651,-0.261829,0.406709,-0.292225,-0.865559,-0.141710,-0.007656,-0.015530,38.918007,20.438318,17.494976,,,,,,,
,,,,,,,,,,,,,,,,6.234817,-75.541680,1614.533604,3.820000,31.640625,1527545907.997251,
1527545908.263940,0.479065,0.292806,-1.168378,0.079257,-0.114633,-0.053586,0.441330,-0.288640,-0.849655,0.072067,-0.140269,-0.018188,36.604271,21.641672,15.414181,,,,,,,
,,,,,,,,,,,,,,,,6.234848,-75.541659,1614.570225,3.790000,31.289062,1527545908.997227,
1527545909.264405,0.473518,0.279602,-1.161174,0.062764,0.319168,-0.472947,0.438310,-0.275973,-0.855408,0.077940,-0.172361,-0.042816,36.976662,21.266870,14.285641,,,,,,,
,,,,,,,,,,,,,,,,6.234878,-75.541639,1613.430576,3.790000,31.289062,1527545909.997201,
1527545910.264753,0.478386,0.295522,-1.157693,-0.057303,-0.096849,-0.002496,0.440391,-0.291240,-0.849255,-0.019050,0.038493,0.003323,35.480080,21.643579,13.847057,,,,,,,
,,,,,,,,,,,,,,,,6.234908,-75.541620,1613.965000,3.580000,30.234375,1527545910.997176,
1527545911.265121,0.501984,0.309505,-1.198001,-0.130402,0.230657,0.398626,0.458303,-0.304587,-0.834976,-0.020925,-0.040749,0.077392,34.494911,20.444605,13.775951,,,,,,,
,,,,,,,,,,,,,,,,6.234938,-75.541602,1614.401035,3.580000,30.585938,1527545911.997152,
1527545912.265545,0.452777,0.269056,-1.126523,0.056075,0.017758,-0.169907,0.421726,-0.265822,-0.866883,-0.022388,-0.009447,-0.063339,36.799583,18.116739,14.879009,,,,,,,
,,,,,,,,,,,,,,,,6.234967,-75.541585,1614.436924,3.520000,30.937500,1527545912.997127,
1527545913.265899,0.422015,0.264603,-1.096225,-0.155089,0.104522,0.015911,0.395344,-0.261526,-0.880515,0.010494,-0.056635,0.017631,36.607140,22.239450,19.840664,,,,,,,
,,,,,,,,,,,,,,,,6.234996,-75.541570,1613.786289,3.520000,29.179688,1527545913.997101,
1527545914.266272,0.376701,0.254134,-0.993057,-0.149058,0.018625,0.060108,0.356040,-0.251408,-0.900016,-0.071708,0.115559,-0.004555,39.313805,22.912699,17.948406,,,,,,,
,,,,,,,,,,,,,,,,6.235024,-75.541556,1613.936436,3.330000,27.773438,1527545914.997076,
1527545915.266684,0.351260,0.237132,-0.908821,0.279021,-0.107995,0.590170,0.334452,-0.234916,-0.912664,-0.030573,0.105094,0.109747,36.315346,23.363398,22.545513,,,,,,,
,,,,,,,,,,,,,,,,6.235051,-75.541544,1614.179600,3.070000,25.312500,1527545915.997051,
1527545916.267030,0.332879,0.218932,-0.801175,-0.083548,-0.458975,0.473316,0.318965,-0.217187,-0.922546,0.184590,-0.035559,-0.154832,35.778618,21.939310,21.795712,,,,,,,
,,,,,,,,,,,,,,,,6.235078,-75.541534,1614.678135,3.430000,21.445312,1527545916.997025,
1527545917.267423,0.228706,0.253372,-0.701977,-0.159988,-0.192830,0.498465,0.219479,-0.250669,-0.942865,0.008472,-0.050554,-0.043051,35.105492,12.868967,13.827740,,,,,,,
,,,,,,,,,,,,,,,,6.235109,-75.541526,1613.989170,3.430000,12.304688,1527545917.997001,
1527545918.267766,0.234535,0.250724,-0.560710,0.142558,0.002167,0.401698,0.225125,-0.248105,-0.942212,-0.002118,0.038510,0.026364,37.817924,14.514688,16.962872,,,,,,,
,,,,,,,,,,,,,,,,6.235141,-75.541525,1612.829014,3.430000,2.812500,1527545918.996975,
1527545919.268168,0.223927,0.233758,-0.417137,0.144385,0.016147,0.001073,0.216021,-0.231635,-0.948515,-0.001543,0.002768,0.028135,33.565086,8.070887,13.076534,,,,,,,
,,,,,,,,,,,,,,,,6.235171,-75.541529,1612.545322,3.360000,355.078125,1527545919.996951,
1527545920.268558,0.225135,0.226576,-0.270503,-0.182275,0.200075,-0.032021,0.217532,-0.224642,-0.949850,0.048749,-0.031217,-0.108820,30.190084,8.222971,15.650539,,,,,,,
,,,,,,,,,,,,,,,,6.235199,-75.541537,1610.899082,3.060000,344.179688,1527545920.996925,
1527545921.268915,0.270428,0.216106,-0.114456,-0.419422,0.109399,0.146186,0.260931,-0.214428,-0.941242,-0.047780,0.040874,-0.045666,29.410391,4.922098,18.947750,,,,,,,
,,,,,,,,,,,,,,,,6.235221,-75.541545,1611.525791,3.060000,330.820312,1527545921.996901,
1527545922.269297,0.268623,0.215102,-0.019613,-0.478925,0.260264,-0.130271,0.259288,-0.213447,-0.941918,-0.057338,-0.067818,-0.025214,23.560080,-4.219656,14.165844,,,,,,,
,,,,,,,,,,,,,,,,6.235240,-75.541558,1611.687168,2.700000,326.601562,1527545922.996876,
1527545923.269651,0.300765,0.203034,0.070089,-0.082684,0.120032,-0.020804,0.290166,-0.201642,-0.935492,0.077586,-0.055942,0.053228,20.054708,-10.517996,17.849636,,,,,,,
,,,,,,,,,,,,,,,,6.235261,-75.541576,1610.493565,2.700000,324.492188,1527545923.996851,
1527545924.270031,0.337019,0.199275,0.123475,0.088718,0.026062,-0.193676,0.324132,-0.197959,-0.925068,0.082057,-0.038766,-0.049633,11.237844,-6.534887,19.271313,,,,,,,
,,,,,,,,,,,,,,,,6.235283,-75.541597,1610.462070,3.390000,322.382812,1527545924.996827,
1527545925.270420,0.315123,0.222504,0.111065,0.464714,-0.187694,-0.135783,0.302293,-0.220673,-0.927320,-0.087403,0.027390,0.148755,23.140615,-9.469091,13.855648,,,,,,,
,,,,,,,,,,,,,,,,6.235306,-75.541620,1609.238194,3.610000,322.382812,1527545925.996801,
1527545926.270780,0.355903,0.286884,0.041438,-0.079505,-0.101645,0.074995,0.334196,-0.282965,-0.899023,-0.017683,0.117010,0.051886,23.865286,-3.619848,13.940212,,,,,,,
,,,,,,,,,,,,,,,,6.235331,-75.541643,1609.189365,3.610000,322.031250,1527545926.996776,
1527545927.271172,0.428546,0.255436,0.048002,0.131688,-0.071255,0.152733,0.402066,-0.252667,-0.880058,-0.010723,0.027920,-0.054024,18.385656,-3.619009,23.203564,,,,,,,
,,,,,,,,,,,,,,,,6.235352,-75.541664,1609.122471,3.610000,318.867188,1527545927.996750,
1527545928.271518,0.493065,0.265420,0.054339,-0.074798,0.178638,0.012351,0.456753,-0.262314,-0.850040,-0.036617,0.082199,-0.014111,13.124487,-5.112219,20.161663,,,,,,,
,,,,,,,,,,,,,,,,6.235373,-75.541687,1609.091709,3.550000,316.054688,1527545928.996726,
1527545929.271909,0.487337,0.229348,0.060461,-0.060791,0.268604,-0.271742,0.456013,-0.227343,-0.860446,0.006649,-0.064115,-0.035535,20.759756,-7.291082,12.602764,,,,,,,
,,,,,,,,,,,,,,,,6.235391,-75.541708,1608.584385,3.550000,313.593750,1527545929.996700,
1527545930.272265,0.510849,0.223084,0.065601,0.286924,0.024438,-0.153554,0.476802,-0.221238,-0.850713,0.114751,-0.067107,0.047536,22.791082,-6.617498,11.390224,,,,,,,
,,,,,,,,,,,,,,,,6.235409,-75.541728,1608.525791,3.180000,315.703125,1527545930.996675,
1527545931.272650,0.496639,0.229308,0.114579,0.122222,-0.128864,0.099255,0.464001,-0.227304,-0.856175,-0.069928,0.103219,0.050221,17.824560,0.807825,20.668560,,,,,,,
,,,,,,,,,,,,,,,,6.235428,-75.541747,1608.549229,3.180000,317.812500,1527545931.996651,
1527545932.273003,0.540521,0.229095,0.064152,-0.237177,0.051323,-0.070319,0.501138,-0.227096,-0.835037,0.062537,0.046661,-0.028518,17.495047,6.505228,26.535107,,,,,,,
,,,,,,,,,,,,,,,,6.235446,-75.541764,1607.958652,3.180000,318.867188,1527545932.996625,
1527545933.273379,0.540687,0.232682,0.063443,0.100460,-0.050792,-0.038246,0.500854,-0.230588,-0.834251,0.060822,0.022184,-0.012368,16.695852,9.506311,25.948208,,,,,,,
,,,,,,,,,,,,,,,,6.235461,-75.541776,1608.598057,2.750000,324.140625,1527545933.996601,
1527545934.273730,0.549848,0.224685,0.067742,-0.290726,-0.055074,0.299390,0.509423,-0.222799,-0.831173,-0.040322,0.026846,0.009197,17.318441,-6.014791,16.905041,,,,,,,
,,,,,,,,,,,,,,,,6.235474,-75.541786,1608.686192,1.840000,324.140625,1527545934.996576,
1527545935.274115,0.557360,0.233052,0.080614,-0.102556,-0.046095,0.109540,0.514648,-0.230949,-0.825712,-0.017639,0.040824,0.021787,16.827627,-11.037420,13.145931,,,,,,,
,,,,,,,,,,,,,,,,6.235482,-75.541792,1608.863682,0.970000,324.140625,1527545935.996551,
1527545936.274471,0.583853,0.251835,0.086228,-0.250497,0.014619,0.236082,0.533855,-0.249182,-0.808027,-0.065120,0.071142,0.156767,18.879873,-16.813147,10.492123,,,,,,,
,,,,,,,,,,,,,,,,6.235491,-75.541792,1608.972569,0.970000,324.492188,1527545936.996525,
1527545937.277739,0.267247,0.608110,0.047415,0.272044,-0.165583,0.108345,0.216736,-0.571317,-0.791594,0.014298,-0.018557,0.012404,21.213827,-15.839788,9.128216,,,,,,,
,,,,,,,,,,,,,,,,6.235497,-75.541793,1609.203526,0.920000,324.140625,1527545937.996500,
1527545938.278110,0.197899,0.647083,0.108774,-0.266417,0.080138,0.157481,0.156864,-0.602861,-0.782272,-0.003040,-0.023664,0.029815,20.711767,-13.064932,10.413662,,,,,,,
,,,,,,,,,,,,,,,,6.235497,-75.541793,1609.253330,0.000000,324.140625,1527545938.996476,
1527545939.278498,0.005600,0.643695,0.062504,-0.308748,0.186602,0.160412,0.004479,-0.600155,-0.799870,-0.026330,0.012249,-0.031428,24.259161,-1.593603,10.642513,,,,,,,
,,,,,,,,,,,,,,,,6.235497,-75.541793,1609.299717,0.000000,324.140625,1527545939.996450,
1527545940.278892,0.061403,0.538796,0.152645,-0.159181,0.095584,-0.074977,0.052670,-0.513103,-0.856709,-0.020749,0.014354,-0.012691,24.698233,6.426874,18.834499,,,,,,,
,,,,,,,,,,,,,,,,6.235497,-75.541793,1609.307529,0.000000,324.140625,1527545940.996426,
1527545941.279247,0.073960,0.506114,0.149405,0.016490,-0.007829,-0.000932,0.064629,-0.484782,-0.872244,-0.020211,0.003550,0.004065,23.643148,5.827921,18.840374,,,,,,,
,,,,,,,,,,,,,,,,6.235497,-75.541793,1609.275791,0.000000,324.140625,1527545941.996401,
1527545942.279656,0.065572,0.501857,0.167035,-0.253907,0.126114,0.008081,0.057445,-0.481054,-0.874807,-0.039562,0.019888,-0.002955,24.251532,6.876795,19.888744,,,,,,,
,,,,,,,,,,,,,,,,6.235497,-75.541793,1609.205479,0.000000,324.140625,1527545942.996375,
1527545943.280023,0.093544,0.466580,0.158341,-0.000649,-0.011157,-0.039813,0.083424,-0.449834,-0.889207,-0.000065,-0.010813,-0.030837,23.495687,6.276789,21.392544,,,,,,,
,,,,,,,,,,,,,,,,6.235497,-75.541793,1609.173740,0.000000,324.140625,1527545943.996350,
1527545944.280396,0.075835,0.462448,0.169591,0.014025,0.006246,0.054507,0.067805,-0.446140,-0.892391,-0.018229,0.003864,0.009746,23.551336,3.877787,19.286144,,,,,,,
,,,,,,,,,,,,,,,,6.235497,-75.541793,1609.001621,0.000000,324.140625,1527545944.996324,
1527545945.280787,0.083911,0.438467,0.175351,-0.062773,0.074431,0.025725,0.075884,-0.424552,-0.902218,-0.030428,0.007834,0.002484,22.691748,-0.320257,17.106670,,,,,,,
,,,,,,,,,,,,,,,,6.235497,-75.541793,1608.643467,0.000000,324.140625,1527545945.996300,
1527545946.281227,0.098315,0.427208,0.157571,-0.024299,0.035765,-0.025573,0.089335,-0.414331,-0.905731,-0.001277,-0.003562,0.000519,23.071737,0.279245,17.330502,,,,,,,
,,,,,,,,,,,,,,,,6.235497,-75.541793,1608.196934,0.000000,324.140625,1527545946.996275,
1527545947.281580,0.097093,0.423681,0.167063,0.007124,-0.000217,0.031920,0.088369,-0.411119,-0.907288,0.000681,-0.001402,0.002564,21.945089,-9.165976,10.039776,,,,,,,
,,,,,,,,,,,,,,,,6.235497,-75.541793,1608.079502,0.000000,324.140625,1527545947.996250,
1527545948.281951,0.095277,0.424677,0.194040,0.009253,0.011282,-0.007584,0.086683,-0.412026,-0.907039,0.001605,0.001519,0.014507,22.445211,-3.018621,14.326656,,,,,,,
,,,,,,,,,,,,,,,,6.235497,-75.541793,1608.092686,0.000000,324.140625,1527545948.996225,
1527545949.282358,0.084010,0.419986,0.200895,0.040090,-0.024983,-0.009928,0.076619,-0.407747,-0.909875,-0.030842,0.002291,-0.031700,23.677435,10.175226,24.176006,,,,,,,
,,,,,,,,,,,,,,,,6.235497,-75.541793,1608.091221,0.000000,324.140625,1527545949.996200,
1527545950.282735,0.097332,0.405859,0.202549,-0.033454,0.008487,0.037322,0.089284,-0.394809,-0.914415,0.000559,-0.010648,0.008455,24.014517,14.822474,28.985271,,,,,,,
,,,,,,,,,,,,,,,,6.235497,-75.541793,1608.034092,0.000000,324.140625,1527545950.996175,
1527545951.283133,0.103376,0.399887,0.195380,-0.008922,-0.029036,-0.010043,0.095051,-0.389314,-0.916188,-0.001865,0.013170,0.018971,24.004263,13.548059,27.857159,,,,,,,
,,,,,,,,,,,,,,,,6.235497,-75.541793,1608.017002,0.000000,324.140625,1527545951.996150,
1527545952.283510,0.111037,0.382938,0.183310,0.006940,0.040065,0.004041,0.102783,-0.373647,-0.921859,0.012070,-0.007761,0.015715,22.911505,8.300989,24.176693,,,,,,,
,,,,,,,,,,,,,,,,6.235497,-75.541793,1607.923252,0.000000,324.140625,1527545952.996124,
1527545953.283857,0.113280,0.385053,0.180324,0.001374,0.031423,-0.029189,0.104761,-0.375609,-0.920838,-0.008707,0.000334,0.005860,24.401770,25.617579,38.009548,,,,,,,
,,,,,,,,,,,,,,,,6.235497,-75.541793,1607.917881,0.000000,324.140625,1527545953.996099,
1527545954.284251,0.118014,0.377330,0.174178,0.001443,-0.002212,0.046765,0.109457,-0.368439,-0.923186,-0.002630,0.003525,-0.011598,24.289465,30.265879,41.621960,,,,,,,
,,,,,,,,,,,,,,,,6.235497,-75.541793,1608.003574,0.000000,324.140625,1527545954.996075,
1527545955.284613,0.168391,0.332918,0.112992,-0.045811,0.062326,-0.053926,0.158394,-0.326803,-0.931725,0.011498,-0.011958,0.008248,21.997992,16.022760,32.452389,,,,,,,
,,,,,,,,,,,,,,,,6.235497,-75.541793,1607.903965,0.000000,324.140625,1527545955.996050,
1527545956.284999,0.147911,0.347329,0.103671,0.370566,-0.135352,-0.155337,0.138572,-0.340388,-0.930018,-0.008445,-0.004278,0.014323,22.520452,15.573511,29.897610,,,,,,,
,,,,,,,,,,,,,,,,6.235497,-75.541793,1607.903721,0.000000,324.140625,1527545956.996025,
1527545957.285359,0.163275,0.341937,0.109967,-0.101806,0.004770,0.085889,0.153140,-0.335312,-0.929577,0.020231,-0.014068,-0.018192,22.218939,-3.168402,14.327862,,,,,,,
,,,,,,,,,,,,,,,,6.235497,-75.541793,1608.015537,0.000000,324.140625,1527545957.996000,
1527545958.285738,0.164628,0.344875,0.120823,-0.032965,0.010365,-0.021407,0.154236,-0.338079,-0.928393,0.017487,-0.006709,0.019656,22.665747,-3.543844,14.323788,,,,,,,
,,,,,,,,,,,,,,,,6.235497,-75.541793,1608.135166,0.000000,324.140625,1527545958.995974,
1527545959.286120,0.162428,0.349770,0.138714,0.026642,0.004827,-0.019930,0.151923,-0.342682,-0.927086,-0.010352,0.010086,-0.005226,22.177206,-8.266745,11.090405,,,,,,,
,,,,,,,,,,,,,,,,6.235497,-75.541793,1608.137852,0.000000,324.140625,1527545959.995950,
1527545960.286494,0.162889,0.347557,0.166382,-0.017637,-0.015953,0.042079,0.152473,-0.340602,-0.927762,-0.003150,-0.001668,0.016477,22.367590,-12.614599,6.428204,,,,,,,
,,,,,,,,,,,,,,,,6.235497,-75.541793,1608.059483,0.000000,324.140625,1527545960.995924,
1527545961.286858,0.171033,0.343066,0.177186,0.023847,-0.040750,0.000440,0.160282,-0.336376,-0.927987,0.010540,0.011257,-0.001151,22.646597,-5.942587,11.842922,,,,,,,
,,,,,,,,,,,,,,,,6.235497,-75.541793,1607.989414,0.000000,324.140625,1527545961.995899,
1527545962.287221,0.168761,0.344535,0.206095,0.000853,0.002866,-0.010929,0.158090,-0.337759,-0.927861,-0.004541,0.008825,0.005620,22.679510,-20.411718,0.031521,,,,,,,
,,,,,,,,,,,,,,,,6.235497,-75.541793,1607.322178,0.000000,193.710938,1527545962.995874,
1527545963.287598,0.171480,0.340603,0.230837,-0.079748,0.069906,-0.057968,0.160838,-0.334056,-0.928729,-0.001811,-0.008885,-0.010404,22.569265,-15.463888,4.619671,,,,,,,
,,,,,,,,,,,,,,,,6.235497,-75.541793,1607.374424,0.000000,193.710938,1527545963.995849,
1527545964.287951,0.160069,0.342626,0.276801,0.005974,-0.145659,0.267391,0.150122,-0.335961,-0.929835,-0.053366,-0.028266,-0.022802,22.093405,-18.612524,2.815121,,,,,,,
,,,,,,,,,,,,,,,,6.235497,-75.541793,1607.449619,0.000000,193.710938,1527545964.995824,
1527545965.288326,0.162793,0.319162,0.310503,0.291542,-0.071359,-0.179871,0.153890,-0.313771,-0.936945,0.000743,0.027959,0.048731,21.874166,-17.714178,6.568905,,,,,,,
,,,,,,,,,,,,,,,,6.235539,-75.541798,1607.523838,0.870000,318.515625,1527545965.995800,
1527545966.288695,0.137426,0.303626,0.376226,0.003098,0.071773,-0.047390,0.130728,-0.298982,-0.945262,-0.072226,0.030809,-0.054296,21.330053,-19.963629,6.567089,,,,,,,
,,,,,,,,,,,,,,,,6.235545,-75.541803,1607.454014,0.870000,318.515625,1527545966.995774,
1527545967.289046,0.131494,0.316414,0.377842,-0.004733,0.045947,-0.119086,0.124606,-0.311160,-0.942153,0.032681,-0.016141,-0.043534,18.813131,-15.986837,8.019650,,,,,,,
,,,,,,,,,,,,,,,,6.235554,-75.541811,1607.304111,0.870000,311.484375,1527545967.995748,
1527545968.289425,0.134688,0.315959,0.393747,-0.268304,0.320897,-0.397685,0.127634,-0.310728,-0.941890,0.023688,-0.047106,-0.106114,22.811407,-13.067358,11.073971,,,,,,,
,,,,,,,,,,,,,,,,6.235567,-75.541823,1607.383701,1.930000,311.484375,1527545968.995724,
1527545969.289811,0.115230,0.322519,0.419705,0.056563,0.070272,-0.096284,0.109047,-0.316956,-0.942150,-0.091042,0.029176,0.090191,22.814520,-12.618078,12.500072,,,,,,,
,,,,,,,,,,,,,,,,6.235584,-75.541840,1606.843418,1.930000,313.242188,1527545969.995699,
1527545970.290160,0.134825,0.322258,0.397368,-0.050556,0.325298,-0.412659,0.127497,-0.316709,-0.939915,0.004278,-0.059146,0.082813,16.802404,3.811167,16.033230,,,,,,,
,,,,,,,,,,,,,,,,6.235604,-75.541860,1606.861240,2.880000,315.000000,1527545970.995674,
1527545971.290527,0.144238,0.317438,0.389852,-0.147903,0.430498,-0.714475,0.136557,-0.312133,-0.940173,-0.025549,0.073989,0.036913,23.315664,2.528818,17.709423,,,,,,,
,,,,,,,,,,,,,,,,6.235621,-75.541877,1606.331944,2.880000,313.945312,1527545971.995649,
1527545972.290891,0.186609,0.321447,0.349069,-0.079957,0.222330,-0.194067,0.176025,-0.315940,-0.932307,0.025635,0.057441,-0.069646,20.448599,0.283701,13.673885,,,,,,,
,,,,,,,,,,,,,,,,6.235640,-75.541896,1606.447178,2.880000,314.296875,1527545972.995623,
1527545973.291243,0.269647,0.320382,0.257158,-0.102722,0.844941,-0.261567,0.252835,-0.314929,-0.914819,0.140811,-0.243619,-0.113166,23.505301,7.178736,17.494717,,,,,,,
,,,,,,,,,,,,,,,,6.235656,-75.541913,1606.854160,2.800000,320.273438,1527545973.995598,
1527545974.291613,0.245358,0.306702,0.298701,-0.035515,-0.201445,0.341332,0.231569,-0.301916,-0.924782,0.012709,-0.039759,-0.087135,25.171835,8.978312,15.012554,,,,,,,
,,,,,,,,,,,,,,,,6.235671,-75.541925,1607.083164,2.450000,320.976562,1527545974.995573,
1527545975.291966,-0.130440,0.869311,0.387162,1.186693,0.184320,-0.442833,-0.083941,-0.763884,-0.639869,0.154635,0.078994,0.258155,26.717794,5.229578,9.367367,,,,,,,
,,,,,,,,,,,,,,,,6.235687,-75.541940,1607.234287,3.060000,320.625000,1527545975.995546,
1527545976.292316,-0.078469,0.714267,0.407905,-0.408902,-2.169465,0.139069,-0.059228,-0.655064,-0.753248,0.111810,0.354710,-0.097003,23.601812,0.655588,13.577740,,,,,,,
,,,,,,,,,,,,,,,,6.235707,-75.541958,1607.247471,3.060000,318.867188,1527545976.995523,
1527545977.292692,0.410436,0.482270,1.266820,0.176802,0.253395,0.058923,0.353500,-0.463791,-0.812364,-0.019241,-0.136154,0.002931,2.164083,-5.780981,29.611706,,,,,,,
,,,,,,,,,,,,,,,,6.235725,-75.541977,1606.829014,3.060000,312.539062,1527545977.995498,
1527545978.293035,0.521478,-0.433084,0.971544,-1.007342,-0.799848,0.226273,0.452169,0.419672,-0.787031,0.104151,-0.016627,0.028288,2.188757,-10.516088,49.774685,,,,,,,
,,,,,,,,,,,,,,,,6.235743,-75.541999,1606.877842,3.190000,309.726562,1527545978.995474,
1527545979.293383,0.486605,-0.043952,1.080570,-0.214467,-0.199855,0.091220,0.467176,0.043938,-0.883072,0.040438,-0.151497,-0.093719,-0.200083,9.427942,66.491272,,,,,,,
,,,,,,,,,,,,,,,,6.235754,-75.542019,1607.135410,3.190000,300.234375,1527545979.995448,
1527545980.293745,0.515020,0.002397,1.196638,0.028229,0.162375,0.023483,0.492550,-0.002397,-0.870280,-0.028332,0.009584,-0.027318,-9.271875,9.663218,64.080368,,,,,,,
,,,,,,,,,,,,,,,,6.235764,-75.542042,1607.310703,3.060000,296.367188,1527545980.995422,
1527545981.294122,0.540117,-0.024584,1.272168,-0.153457,-0.128900,0.089300,0.514081,0.024582,-0.857389,-0.009824,0.015229,0.026670,-1.254816,-1.730886,36.245770,,,,,,,
,,,,,,,,,,,,,,,,6.235773,-75.542061,1607.482578,3.060000,299.882812,1527545981.995398,
1527545982.294507,0.515978,-0.020169,1.323107,-0.011817,0.226003,0.180433,0.493285,0.020167,-0.869634,-0.036239,-0.037104,0.022542,-4.436884,-6.147238,25.307003,,,,,,,
,,,,,,,,,,,,,,,,6.235781,-75.542079,1606.720615,2.500000,286.523438,1527545982.995373,
1527545983.294858,0.504760,-0.034261,1.407246,0.228121,-0.045535,0.052467,0.483313,0.034254,-0.874777,0.015466,0.020250,0.050680,-5.694056,-13.416357,16.072628,,,,,,,
,,,,,,,,,,,,,,,,6.235791,-75.542103,1605.470127,2.500000,282.304688,1527545983.995347,
1527545984.295245,0.431869,-0.059098,1.450102,0.096057,-0.354531,0.009516,0.417839,0.059063,-0.906599,0.060769,0.035770,-0.117372,-7.289804,-16.038229,13.002254,,,,,,,
,,,,,,,,,,,,,,,,6.235799,-75.542130,1604.853428,2.870000,282.304688,1527545984.995322,
1527545985.295613,0.388711,-0.059044,1.491942,0.129923,-0.157040,0.210636,0.378336,0.059010,-0.923785,-0.047525,-0.010792,0.027622,-8.570215,-16.860373,9.859158,,,,,,,
,,,,,,,,,,,,,,,,6.235804,-75.542159,1604.865635,3.070000,279.843750,1527545985.995298,
1527545986.295942,0.235317,-0.038415,1.463508,-0.009835,0.649925,-0.503404,0.232979,0.038405,-0.971723,0.030372,-0.036864,-0.092638,-11.989771,-12.141607,29.169888,,,,,,,
,,,,,,,,,,,,,,,,6.235808,-75.542189,1604.576572,3.560000,273.164062,1527545986.995272,
1527545987.296319,0.286690,-0.022618,1.479083,0.565301,0.255630,-0.258493,0.282706,0.022616,-0.958940,-0.024451,0.026151,0.217012,-12.290461,-12.365118,26.771435,,,,,,,
,,,,,,,,,,,,,,,,6.235812,-75.542223,1603.970127,3.560000,274.570312,1527545987.995247,
1527545988.296676,0.324038,-0.013011,1.501400,-0.245371,-0.194696,0.257096,0.318370,0.013011,-0.947877,-0.019603,0.129460,-0.061004,-10.692225,-9.220190,33.743114,,,,,,,
,,,,,,,,,,,,,,,,6.235816,-75.542258,1603.980381,3.780000,274.218750,1527545988.995223,
1527545989.297059,0.358459,-0.016805,1.479733,0.094745,-0.245989,0.033749,0.350782,0.016804,-0.936306,-0.052549,0.086163,-0.016681,-14.717203,-15.289572,30.531109,,,,,,,
,,,,,,,,,,,,,,,,6.235819,-75.542287,1603.458897,3.780000,273.867188,1527545989.995197,
1527545990.297434,0.401005,0.002355,1.393738,-0.029775,-0.493199,0.244001,0.390343,-0.002355,-0.920667,0.001762,0.132040,0.018155,-9.521006,-13.265768,22.549801,,,,,,,
,,,,,,,,,,,,,,,,6.235823,-75.542314,1603.416904,3.350000,275.625000,1527545990.995171,
1527545991.297794,0.450221,0.023820,1.307613,-0.036447,0.401468,-0.039677,0.435041,-0.023818,-0.900095,-0.027861,-0.051927,-0.087560,-11.158991,-11.467398,29.090755,,,,,,,
,,,,,,,,,,,,,,,,6.235826,-75.542340,1602.888340,3.350000,278.437500,1527545991.995147,
1527545992.298173,0.455703,0.051845,1.240654,0.221926,-0.066410,0.125025,0.439502,-0.051822,-0.896745,-0.066989,-0.010526,0.125108,-13.265863,-11.992697,33.904186,,,,,,,
,,,,,,,,,,,,,,,,6.235834,-75.542369,1602.414951,3.350000,283.359375,1527545992.995122,
1527545993.298550,0.483444,0.055390,1.169632,-0.039145,0.114720,-0.428875,0.464119,-0.055362,-0.884041,0.058342,-0.041989,-0.038169,-2.909296,-21.292440,12.658443,,,,,,,
,,,,,,,,,,,,,,,,6.235841,-75.542391,1602.454502,3.180000,284.765625,1527545993.995097,
1527545994.298902,0.495301,0.073382,1.115425,-0.004778,0.071693,-0.072148,0.474017,-0.073316,-0.877458,0.062451,0.021711,-0.060240,6.969702,-24.372137,2.306591,,,,,,,
,,,,,,,,,,,,,,,,6.235847,-75.542403,1602.626621,1.250000,285.468750,1527545994.995072,
1527545995.299263,0.493471,0.069942,1.078639,-0.326828,-0.085574,0.332793,0.472528,-0.069885,-0.878541,-0.082727,-0.042298,0.059464,6.079351,-23.246176,2.165646,,,,,,,
,,,,,,,,,,,,,,,,6.235860,-75.542431,1602.669102,3.630000,292.148438,1527545995.995047,
1527545996.299640,0.492404,0.064554,1.047212,-0.194982,-0.081527,0.177896,0.471761,-0.064509,-0.879364,0.019236,-0.030324,-0.053452,2.297567,-17.622000,11.356182,,,,,,,
,,,,,,,,,,,,,,,,6.235879,-75.542468,1602.433018,3.790000,294.609375,1527545996.995021,
1527545997.300024,0.556518,0.058344,1.005877,0.086319,0.387232,-0.465030,0.527334,-0.058310,-0.847655,0.048899,-0.217828,-0.067903,1.766287,-18.148260,14.958584,,,,,,,
,,,,,,,,,,,,,,,,6.235898,-75.542502,1602.855869,3.790000,296.015625,1527545997.994996,
1527545998.300343,0.571495,0.050720,1.010905,-0.031716,-0.184514,0.112747,0.540194,-0.050699,-0.840012,0.129865,-0.199515,-0.236435,4.955221,-13.427649,17.348064,,,,,,,
,,,,,,,,,,,,,,,,6.235917,-75.542536,1602.945225,3.790000,295.664062,1527545998.994972,
1527545999.300706,0.566146,0.079482,1.008533,0.094116,0.119523,-0.430957,0.534690,-0.079399,-0.841310,0.026101,-0.069146,-0.089675,6.113653,-18.601400,12.527020,,,,,,,
,,,,,,,,,,,,,,,,6.235936,-75.542568,1603.137608,3.590000,296.718750,1527545999.994947,
1527546000.301089,0.523869,0.080490,1.068338,-0.076505,0.007627,-0.191235,0.498614,-0.080403,-0.863087,0.027646,-0.096767,-0.160305,-0.032022,-27.143301,8.648678,,,,,,,
,,,,,,,,,,,,,,,,6.235958,-75.542601,1604.084141,3.990000,297.070312,1527546000.994921,
1527546001.301455,0.514632,0.088020,1.126638,0.045336,0.232611,-0.383329,0.490308,-0.087907,-0.867103,-0.013181,0.004349,-0.015068,2.569357,-30.144003,4.872967,,,,,,,
,,,,,,,,,,,,,,,,6.235980,-75.542639,1604.541416,4.470000,292.500000,1527546001.994897,
1527546002.301836,0.515569,0.085501,1.150719,-0.202401,0.003642,-0.019099,0.491229,-0.085397,-0.866833,0.013440,0.005029,0.058194,-0.456964,-24.292059,7.008785,,,,,,,
,,,,,,,,,,,,,,,,6.236003,-75.542680,1605.796787,4.470000,293.906250,1527546002.994871,
1527546003.302204,0.502665,0.069111,1.194747,-0.047235,-0.034355,0.156820,0.480612,-0.069056,-0.874209,-0.126883,0.028605,-0.026547,-3.338648,-27.890265,9.194958,,,,,,,
,,,,,,,,,,,,,,,,6.236044,-75.542737,1606.095615,4.920000,296.015625,1527546003.994846,
1527546004.302520,0.533993,0.072864,1.134078,0.187879,-0.089189,-0.002856,0.507624,-0.072800,-0.858497,0.019140,-0.060486,-0.025307,-1.906046,-26.322424,20.663845,,,,,,,
,,,,,,,,,,,,,,,,6.236078,-75.542786,1606.691319,5.550000,298.125000,1527546004.994822,
1527546005.302895,0.547750,0.069269,1.154468,0.036658,-0.073982,0.162192,0.519518,-0.069213,-0.851651,-0.095492,0.000656,-0.002170,-7.465784,-27.293356,23.625347,,,,,,,
,,,,,,,,,,,,,,,,6.236106,-75.542834,1606.839756,6.550000,297.773438,1527546005.994797,
1527546006.303274,0.578748,0.074477,1.132377,-0.066846,-0.145664,0.200461,0.545460,-0.074409,-0.834827,-0.078587,0.017768,0.008717,-6.175180,-6.679266,42.867840,,,,,,,
,,,,,,,,,,,,,,,,6.236129,-75.542871,1606.636143,6.550000,297.421875,1527546006.994772,
1527546007.303626,0.586520,0.102175,1.114116,0.036079,0.176587,-0.113096,0.550579,-0.101997,-0.828528,-0.068905,-0.047188,0.101233,-7.404917,7.719843,47.112453,,,,,,,
,,,,,,,,,,,,,,,,6.236166,-75.542943,1606.861240,6.550000,297.421875,1527546007.994746,
1527546008.303966,0.575745,0.094080,1.132775,-0.002840,-0.126574,0.241507,0.542052,-0.093942,-0.835078,-0.053511,0.031762,-0.010000,-10.686472,-8.247717,38.770504,,,,,,,
,,,,,,,,,,,,,,,,6.236203,-75.543006,1606.495518,7.230000,297.773438,1527546008.994721,
1527546009.304352,0.593635,0.094970,1.107511,-0.078965,-0.176077,-0.160848,0.556857,-0.094827,-0.825177,0.125668,-0.003912,-0.052264,-12.119730,-8.849432,45.079037,,,,,,,
,,,,,,,,,,,,,,,,6.236234,-75.543070,1605.246006,7.550000,300.585938,1527546009.994696,
1527546010.304713,0.543987,0.122519,1.121796,0.569758,-0.082435,-0.060818,0.513672,-0.122213,-0.849238,-0.156174,0.057485,0.275156,-14.533701,-10.571356,43.741619,,,,,,,
,,,,,,,,,,,,,,,,6.236277,-75.543148,1603.484776,8.180000,298.476562,1527546010.994671,
1527546011.305090,0.563149,0.144089,1.081750,-0.102031,0.781935,-0.544466,0.528319,-0.143591,-0.836815,-0.108062,0.071813,0.271263,-5.349680,-16.124304,31.288448,,,,,,,
,,,,,,,,,,,,,,,,6.236313,-75.543211,1604.119053,9.020000,301.640625,1527546011.994646,
1527546012.305412,-0.019025,-0.039823,1.121620,0.853553,0.908518,0.014899,-0.019009,0.039813,-0.999026,-0.056141,-0.085543,0.318194,11.919317,-22.890081,28.300655,,,,,,,
,,,,,,,,,,,,,,,,6.236358,-75.543281,1604.137608,9.020000,302.343750,1527546012.994621,
1527546013.305789,0.206723,0.011261,1.156306,0.421229,-0.364072,0.043185,0.205240,-0.011260,-0.978647,-0.021784,-0.138154,0.113763,3.596029,-23.028875,22.508572,,,,,,,
,,,,,,,,,,,,,,,,6.236402,-75.543351,1604.315830,9.120000,302.343750,1527546013.994596,
1527546014.306137,0.312179,0.028899,1.178416,0.047997,0.079232,0.198373,0.307005,-0.028895,-0.951269,-0.155104,0.095225,0.269522,-5.498209,-24.675009,32.993114,,,,,,,
,,,,,,,,,,,,,,,,6.236453,-75.543432,1603.858311,9.990000,302.343750,1527546014.994571,
1527546015.306495,0.371911,0.003378,1.186060,-0.857214,-1.254062,0.046443,0.363394,-0.003378,-0.931629,0.180719,0.040671,-0.278271,5.002188,-16.430197,22.365231,,,,,,,
,,,,,,,,,,,,,,,,6.236509,-75.543506,1603.279453,10.450000,301.992188,1527546015.994546,
1527546016.306864,0.360342,0.072813,1.114694,0.604412,0.775499,-0.216244,0.351660,-0.072749,-0.933297,-0.160300,-0.101446,0.344872,3.542105,6.293039,28.807247,,,,,,,
,,,,,,,,,,,,,,,,6.236552,-75.543589,1603.782627,10.390000,303.398438,1527546016.994521,
1527546017.307213,0.371839,0.092906,1.142859,0.033516,-0.088377,0.035042,0.361762,-0.092772,-0.927643,-0.016242,-0.059220,0.115158,8.462133,2.763147,28.763988,,,,,,,
,,,,,,,,,,,,,,,,6.236596,-75.543661,1603.765537,10.130000,303.750000,1527546017.994495,
1527546018.307560,0.369851,0.058324,1.094730,-0.069756,-0.551410,0.467578,0.360862,-0.058291,-0.930796,0.009713,-0.040647,0.060572,17.092337,3.875269,37.256359,,,,,,,
,,,,,,,,,,,,,,,,6.236643,-75.543732,1603.489170,9.900000,305.156250,1527546018.994470,
1527546019.307945,0.414308,0.076424,1.026286,-0.077621,0.692279,-0.386559,0.401381,-0.076350,-0.912723,-0.024443,-0.068044,-0.067578,21.215094,12.421259,37.023861,,,,,,,
,,,,,,,,,,,,,,,,6.236695,-75.543805,1603.683018,9.900000,305.156250,1527546019.994446,
1527546020.308257,0.437224,0.077993,0.945787,0.009856,0.180686,-0.169292,0.422139,-0.077914,-0.903177,0.126659,0.073855,-0.031485,20.437368,18.567072,46.944668,,,,,,,
,,,,,,,,,,,,,,,,6.236758,-75.543880,1602.539463,10.270000,312.187500,1527546020.994420,
1527546021.308631,0.432750,0.075803,0.867900,-0.219524,0.396629,0.120405,0.418164,-0.075730,-0.905209,-0.014524,0.057191,0.034726,28.723272,22.089731,35.045483,,,,,,,
,,,,,,,,,,,,,,,,6.236825,-75.543958,1602.817295,10.220000,315.351562,1527546021.994395,
1527546022.309010,0.399564,0.064772,0.870018,-0.246311,0.351740,-0.169644,0.388201,-0.064727,-0.919299,0.069212,0.226425,0.027148,36.565697,27.775995,46.854794,,,,,,,
,,,,,,,,,,,,,,,,6.236890,-75.544023,1602.431553,10.220000,315.351562,1527546022.994371,
1527546023.309326,0.464144,0.077009,0.772231,-0.131892,0.294900,-0.400645,0.446330,-0.076933,-0.891555,0.098683,0.017225,-0.098664,36.216072,30.330011,39.513622,,,,,,,
,,,,,,,,,,,,,,,,6.236967,-75.544079,1603.141514,9.230000,325.898438,1527546023.994346,
1527546024.309702,0.485347,0.117679,0.713005,0.130283,0.474167,-0.048590,0.463288,-0.117408,-0.878395,-0.068238,0.046271,0.223961,28.592566,24.116938,30.926464,,,,,,,
,,,,,,,,,,,,,,,,6.237031,-75.544131,1603.898838,8.790000,327.656250,1527546024.994319,
1527546025.310079,0.516724,0.098916,0.663982,-0.503643,-0.196628,-0.138067,0.491620,-0.098755,-0.865192,0.121524,-0.165756,-0.334866,30.967321,30.262079,35.875195,,,,,,,
,,,,,,,,,,,,,,,,6.237098,-75.544173,1603.948643,8.790000,327.304688,1527546025.994295,
1527546026.310425,0.499603,0.109603,0.650261,0.312737,0.413805,-0.729822,0.476203,-0.109384,-0.872506,0.036340,-0.147910,-0.132530,40.687950,26.802393,35.798504,,,,,,,
,,,,,,,,,,,,,,,,6.237164,-75.544210,1603.443760,8.350000,324.843750,1527546026.994270,
1527546027.310768,0.497194,0.109270,0.621991,0.405600,0.941965,-0.458757,0.474117,-0.109052,-0.873682,-0.176219,-0.136477,0.106089,20.546545,11.610270,10.326504,,,,,,,
,,,,,,,,,,,,,,,,6.237225,-75.544254,1601.562412,8.070000,327.656250,1527546027.994244,
1527546028.311116,0.506849,0.113759,0.614751,-0.226881,0.149086,-0.082052,0.482287,-0.113513,-0.868627,0.088773,-0.126126,-0.119562,39.042168,-0.336065,16.017178,,,,,,,
,,,,,,,,,,,,,,,,6.237281,-75.544286,1600.019932,6.450000,325.898438,1527546028.994220,
1527546029.311502,0.499863,0.131322,0.619529,-0.077208,-0.074840,0.323952,0.475178,-0.130945,-0.870091,-0.109700,-0.094961,0.026722,20.696310,21.352091,26.399822,,,,,,,
,,,,,,,,,,,,,,,,6.237313,-75.544325,1598.518467,6.650000,322.734375,1527546029.994194,
1527546030.311858,0.457810,0.117934,0.644295,-0.013586,-0.439886,0.494281,0.438914,-0.117661,-0.890792,-0.132243,0.019074,0.139846,30.942495,8.447702,14.670834,,,,,,,
,,,,,,,,,,,,,,,,6.237361,-75.544361,1598.421787,6.650000,322.734375,1527546030.994170,
1527546031.312179,0.503664,0.129979,0.623228,-0.487881,0.521347,-0.240136,0.478566,-0.129613,-0.868432,-0.110982,-0.063579,-0.067161,32.886879,8.142740,20.731457,,,,,,,
,,,,,,,,,,,,,,,,6.237421,-75.544370,1599.145420,6.590000,329.062500,1527546031.994145,
1527546032.312550,0.516792,0.132620,0.592037,-0.113744,0.121986,0.114176,0.489755,-0.132231,-0.861774,0.073172,0.039702,-0.189145,42.081810,22.754282,29.253628,,,,,,,
,,,,,,,,,,,,,,,,6.237483,-75.544419,1599.160557,6.940000,320.976562,1527546032.994119,
1527546033.312901,0.491376,0.124527,0.577006,0.007748,-1.106488,0.694344,0.468186,-0.124205,-0.874857,0.080322,0.037230,-0.001272,30.186346,26.067545,26.495174,,,,,,,
,,,,,,,,,,,,,,,,6.237549,-75.544459,1599.585606,7.380000,320.625000,1527546033.994095,
1527546034.313277,0.499788,0.148966,0.554481,-0.399197,-0.014717,-0.239659,0.473932,-0.148416,-0.867964,-0.054422,-0.114615,-0.137529,33.761055,23.138575,27.287838,,,,,,,
,,,,,,,,,,,,,,,,6.237622,-75.544501,1599.788975,8.040000,324.492188,1527546034.994070,
1527546035.313639,0.476869,0.155629,0.573885,0.139873,-0.124135,0.202260,0.453453,-0.155001,-0.877699,-0.062980,0.119815,0.084913,34.697914,36.634773,33.015011,,,,,,,
,,,,,,,,,,,,,,,,6.237686,-75.544509,1597.850986,7.820000,326.601562,1527546035.994045,
1527546036.313983,0.490059,0.175609,0.558537,0.013302,0.272668,-0.043421,0.463439,-0.174708,-0.868735,-0.131744,-0.142523,0.134879,30.850668,24.717676,24.912151,,,,,,,
,,,,,,,,,,,,,,,,6.237752,-75.544536,1595.831455,7.630000,326.250000,1527546036.994020,
1527546037.314335,0.479350,0.162607,0.589665,-0.123877,-0.393256,0.603602,0.455119,-0.161892,-0.875590,-0.047953,-0.134907,0.042445,38.824974,18.784449,25.441494,,,,,,,
,,,,,,,,,,,,,,,,6.237809,-75.544574,1595.522373,7.630000,326.250000,1527546037.993995,
1527546038.314691,0.487115,0.159654,0.604348,0.016049,0.163906,-0.330428,0.462126,-0.158977,-0.872448,-0.100660,0.001185,-0.015339,5.360966,6.758148,-37.221642,,,,,,,
,,,,,,,,,,,,,,,,6.237895,-75.544632,1589.120518,8.250000,327.656250,1527546038.993969,
1527546039.315074,0.514103,0.140976,0.573014,0.324409,0.532144,-0.423277,0.486875,-0.140510,-0.862096,-0.076200,-0.112267,-0.047893,-5.762676,4.068481,-35.650505,,,,,,,
,,,,,,,,,,,,,,,,6.237960,-75.544670,1590.181065,7.830000,329.062500,1527546039.993944,
1527546040.315454,0.514406,0.150639,0.576384,-0.000182,0.005695,-0.093202,0.486445,-0.150070,-0.860726,-0.031718,0.043732,-0.058326,0.456532,12.311417,-33.948418,,,,,,,
,,,,,,,,,,,,,,,,6.238021,-75.544706,1589.941807,7.830000,329.062500,1527546040.993920,
1527546041.315780,0.527067,0.160705,0.558942,-0.218458,-0.716062,0.592588,0.496519,-0.160014,-0.853149,0.042467,-0.033742,0.039352,1.262455,9.986282,-35.309883,,,,,,,
,,,,,,,,,,,,,,,,6.238077,-75.544735,1591.654209,7.090000,329.765625,1527546041.993894,
1527546042.316161,0.478878,0.171219,0.616113,-0.318245,-0.033220,0.172617,0.454046,-0.170384,-0.874535,-0.030477,0.119633,-0.028496,-0.628246,-1.033859,-41.249199,,,,,,,
,,,,,,,,,,,,,,,,6.238132,-75.544768,1591.175205,7.090000,329.765625,1527546042.993869,
1527546043.316512,0.480295,0.180783,0.586426,-0.125690,-0.360279,0.388730,0.454511,-0.179800,-0.872405,-0.063840,-0.114207,0.147308,2.617283,1.437424,-40.290733,,,,,,,
,,,,,,,,,,,,,,,,6.238188,-75.544795,1589.128819,7.370000,331.171875,1527546043.993845,
1527546044.316888,0.481079,0.139224,0.608694,0.326789,0.509625,-0.683818,0.458258,-0.138775,-0.877918,-0.009253,-0.035801,-0.028744,4.371220,5.405869,-30.693092,,,,,,,
,,,,,,,,,,,,,,,,6.238238,-75.544856,1586.895664,6.510000,326.953125,1527546044.993818,
1527546045.317205,0.439382,0.154748,0.628680,0.099706,0.276949,0.243946,0.420297,-0.154131,-0.894200,-0.199670,0.024462,0.253788,-0.171001,0.088409,-36.674583,,,,,,,
,,,,,,,,,,,,,,,,6.238286,-75.544881,1586.526768,6.650000,326.953125,1527546045.993794,
1527546046.317587,0.448750,0.127450,0.628849,0.401874,-0.528222,0.152143,0.430321,-0.127105,-0.893682,0.071541,-0.044678,-0.047526,6.747349,-6.965225,-43.265648,,,,,,,
,,,,,,,,,,,,,,,,6.238338,-75.544919,1585.098057,6.540000,326.953125,1527546046.993770,
1527546047.317957,0.449390,0.137248,0.619504,-0.128376,-0.256497,0.092433,0.430331,-0.136818,-0.892242,0.016554,-0.153328,0.002929,1.751011,-12.658173,-47.369911,,,,,,,
,,,,,,,,,,,,,,,,6.238388,-75.544951,1584.935947,6.540000,326.953125,1527546047.993744,
1527546048.318292,0.479784,0.117004,0.622518,-0.181863,0.058819,-0.023023,0.458431,-0.116737,-0.881029,-0.033000,0.075676,-0.036665,1.819080,-4.410278,-43.299767,,,,,,,
,,,,,,,,,,,,,,,,6.238423,-75.544990,1586.659336,6.100000,320.625000,1527546048.993718,
1527546049.318667,0.495698,0.115222,0.563906,0.077403,-0.238808,-0.036129,0.472492,-0.114967,-0.873803,0.091778,0.091835,-0.057685,-3.555401,-1.330566,-41.979439,,,,,,,
,,,,,,,,,,,,,,,,6.238466,-75.545025,1586.601963,6.100000,320.625000,1527546049.993694,
1527546050.319020,0.477927,0.112721,0.545596,-0.069006,-0.093304,0.042133,0.457020,-0.112482,-0.882314,0.012920,0.212824,0.027425,-0.858990,7.141144,-40.777138,,,,,,,
,,,,,,,,,,,,,,,,6.238517,-75.545075,1585.680088,6.380000,333.281250,1527546050.993669,
1527546051.319394,0.433434,0.118470,0.555188,-0.417617,-0.022169,-0.685607,0.417045,-0.118193,-0.901167,0.063957,0.055632,-0.077272,-5.157040,15.154297,-8.477028,,,,,,,
,,,,,,,,,,,,,,,,6.238557,-75.545087,1586.787998,5.790000,339.609375,1527546051.993643,
1527546052.319757,0.444061,0.086675,0.411027,-0.323298,-0.477462,0.184422,0.427997,-0.086566,-0.899624,0.169064,0.070956,-0.064274,11.089756,1.798355,-29.099144,,,,,,,
,,,,,,,,,,,,,,,,6.238617,-75.545106,1587.306065,6.040000,342.773438,1527546052.993618,
1527546053.320142,0.437465,0.081969,0.344336,-0.001896,-0.688667,0.501653,0.422222,-0.081878,-0.902787,-0.027584,0.109710,0.079743,5.440815,7.729660,-30.394768,,,,,,,
,,,,,,,,,,,,,,,,6.238670,-75.545123,1587.247471,6.030000,342.773438,1527546053.993594,
1527546054.320503,0.481124,0.109727,0.229132,0.586164,-0.137506,-0.002581,0.459993,-0.109507,-0.881143,0.140471,-0.090292,0.129343,-1.089855,-2.011688,-34.648399,,,,,,,
,,,,,,,,,,,,,,,,6.238705,-75.545134,1589.208897,5.700000,348.046875,1527546054.993569,
1527546055.320863,0.496953,0.115572,0.215508,-0.137740,-0.182071,0.093051,0.473568,-0.115315,-0.873175,-0.009640,-0.051845,0.048239,1.245579,-0.590668,-31.361198,,,,,,,
,,,,,,,,,,,,,,,,6.238756,-75.545145,1589.084873,5.700000,348.046875,1527546055.993543,
1527546056.321244,0.539991,0.103728,0.213929,-0.240359,0.602870,-0.534538,0.511365,-0.103542,-0.853102,0.029361,0.075298,-0.095110,1.080799,24.308090,-28.522804,,,,,,,
,,,,,,,,,,,,,,,,6.238762,-75.545137,1588.725010,2.990000,349.453125,1527546056.993518,
1527546057.321572,0.522747,0.146598,0.192374,-0.336761,-0.103275,0.178769,0.493907,-0.146073,-0.857156,-0.095591,0.010026,0.055032,-11.753613,24.088364,-13.433525,,,,,,,
,,,,,,,,,,,,,,,,6.238769,-75.545135,1587.497959,0.880000,348.398438,1527546057.993493,
1527546058.321930,0.556668,0.117222,0.189297,0.056531,-0.252966,-0.344272,0.524734,-0.116953,-0.843193,0.252274,0.079371,-0.175988,-17.382519,-12.275803,-23.835014,,,,,,,
,,,,,,,,,,,,,,,,6.238814,-75.545148,1587.497227,2.220000,347.343750,1527546058.993468,
