timestamp(unix),attitude_roll(radians),attitude_pitch(radians),attitude_yaw(radians),rotation_rate_x(radians/s),rotation_rate_y(radians/s),rotation_rate_z(radians/s),gravity_x(G),gravity_y(G),gravity_z(G),user_acc_x(G),user_acc_y(G),user_acc_z(G),magnetic_field_x(microteslas),magnetic_field_y(microteslas),magnetic_field_z(microteslas),latitude(degree),longitude(degree),altitude(meter),speed(m/s),course(degree),timestamp(unix),User Mark
,,,,,,,,,,,,,,,,6.233168,-75.540390,1640.602695,0.000000,140.976562,1527541259.002581,
,,,,,,,,,,,,,,,,6.233168,-75.540390,1640.595371,0.000000,140.976562,1527541260.002357,
1527541260.298478,0.415928,0.565406,-0.988052,0.155283,-0.168268,-0.043883,0.341159,-0.535759,-0.772381,0.006254,-0.034767,0.000058,20.067373,19.034721,-5.092487,,,,,,,
,,,,,,,,,,,,,,,,6.233168,-75.540390,1641.292149,0.000000,140.976562,1527541261.002146,
1527541261.298882,0.512276,0.632629,-1.042531,-0.197812,-0.234826,-0.242507,0.395304,-0.591267,-0.702949,-0.013682,-0.017879,-0.006218,20.524038,19.858940,-4.418629,,,,,,,
,,,,,,,,,,,,,,,,6.233168,-75.540390,1641.075596,0.000000,140.976562,1527541262.001943,
1527541262.299312,0.474934,0.571841,-1.050169,-0.148751,-0.102332,-0.061132,0.384529,-0.541181,-0.747836,0.003716,-0.005587,0.028277,21.219625,22.332787,-3.517307,,,,,,,
,,,,,,,,,,,,,,,,6.233168,-75.540390,1641.507725,0.000000,140.976562,1527541263.001749,
1527541263.299748,0.285818,0.212703,-0.628352,-1.136365,0.713702,-0.243636,0.275588,-0.211103,-0.937809,-0.047576,-0.018374,0.053700,23.790350,16.401375,4.174862,,,,,,,
,,,,,,,,,,,,,,,,6.233168,-75.540390,1641.465488,0.000000,238.359375,1527541264.001566,
1527541264.300154,0.035559,0.618383,-0.632548,0.507450,-0.302134,0.247169,0.028968,-0.579719,-0.814301,-0.095665,-0.098870,0.065339,23.779715,14.531639,-6.329731,,,,,,,
,,,,,,,,,,,,,,,,6.233176,-75.540394,1642.681065,0.610000,285.117188,1527541265.001395,
1527541265.300561,0.313848,0.361467,-0.626545,-0.202531,-0.938941,0.094828,0.288771,-0.353647,-0.889688,-0.013121,-0.023520,0.079858,22.824209,17.526619,5.609447,,,,,,,
,,,,,,,,,,,,,,,,6.233182,-75.540403,1643.193272,1.220000,284.414062,1527541266.001235,
1527541266.301000,-0.061899,0.387283,-0.558205,-0.764830,-1.285193,1.655718,-0.057278,-0.377674,-0.924165,0.045483,-0.148235,0.153199,20.344900,16.483665,-3.525806,,,,,,,
,,,,,,,,,,,,,,,,6.233195,-75.540411,1640.902256,1.440000,305.507812,1527541267.001082,
1527541267.301421,0.046406,0.773501,-0.692727,0.054256,0.685536,-0.061610,0.033190,-0.698644,-0.714699,0.034330,0.041982,0.215721,17.863150,15.363914,-9.061237,,,,,,,
,,,,,,,,,,,,,,,,6.233210,-75.540422,1642.014805,1.440000,310.429688,1527541268.000932,
1527541268.301858,0.104978,0.565237,-0.623554,0.383697,0.290907,-0.081253,0.088487,-0.535616,-0.839812,-0.027284,0.005892,-0.003755,12.758032,14.917686,-6.401615,,,,,,,
,,,,,,,,,,,,,,,,6.233221,-75.540431,1642.662510,1.440000,310.781250,1527541269.000793,
1527541269.302260,0.149987,0.525785,-0.703591,-0.078128,0.054095,0.030967,0.129242,-0.501892,-0.855220,0.045517,0.012009,0.017863,14.199545,17.014946,-3.781467,,,,,,,
,,,,,,,,,,,,,,,,6.233230,-75.540439,1643.058262,1.340000,305.859375,1527541270.000660,
1527541270.302709,0.309121,0.633966,-0.757350,0.010245,0.016739,0.069561,0.245107,-0.592345,-0.767496,0.021556,-0.043504,0.143396,15.039953,18.814217,-4.007847,,,,,,,
,,,,,,,,,,,,,,,,6.233237,-75.540445,1643.193760,0.890000,305.156250,1527541271.000535,
1527541271.303118,0.286608,0.640623,-0.691640,0.007682,-0.016126,0.082419,0.226647,-0.597695,-0.769020,-0.030938,-0.060920,0.025627,16.685431,18.064415,-7.696232,,,,,,,
,,,,,,,,,,,,,,,,6.233243,-75.540453,1645.062412,1.090000,304.804688,1527541272.000413,
1527541272.303573,0.313351,0.645525,-0.819667,0.087222,-0.246907,-0.099798,0.246224,-0.601618,-0.759888,-0.045143,0.025934,0.061463,18.036108,17.915016,-11.606068,,,,,,,
,,,,,,,,,,,,,,,,6.233251,-75.540463,1645.384434,1.090000,305.859375,1527541273.000300,
1527541273.303954,0.331894,0.706374,-0.778654,0.363491,0.365651,-0.030670,0.247869,-0.649079,-0.719206,-0.012075,-0.051650,0.078230,21.963140,12.211601,-12.622822,,,,,,,
,,,,,,,,,,,,,,,,6.233261,-75.540475,1645.460850,1.330000,306.914062,1527541274.000191,
1527541274.304410,0.272664,0.889379,-0.769885,0.017710,0.104608,-0.001003,0.169629,-0.776681,-0.606624,-0.027951,-0.065772,0.047191,23.995382,4.185036,-13.557117,,,,,,,
,,,,,,,,,,,,,,,,6.233274,-75.540491,1644.577061,1.600000,307.968750,1527541275.000087,
1527541275.304808,0.343251,0.907312,-0.804085,-0.081508,0.359450,-0.128097,0.207269,-0.787851,-0.579937,-0.025842,-0.056708,0.022046,21.112097,9.509377,-6.473621,,,,,,,
,,,,,,,,,,,,,,,,6.233289,-75.540511,1644.508213,2.410000,308.671875,1527541275.999985,
1527541276.305243,0.317209,0.922856,-0.760141,-0.101233,-0.089290,0.039340,0.188254,-0.797329,-0.573430,-0.001502,-0.023548,0.072011,20.207907,8.911171,-8.268787,,,,,,,
,,,,,,,,,,,,,,,,6.233304,-75.540532,1644.284580,2.410000,308.320312,1527541276.999891,
1527541277.305656,0.257254,0.904909,-0.706607,0.054417,-0.261132,-0.195684,0.157172,-0.786369,-0.597423,0.022394,-0.043587,0.078991,20.190786,6.737541,-10.974094,,,,,,,
,,,,,,,,,,,,,,,,6.233331,-75.540549,1641.130283,2.410000,316.054688,1527541277.999797,
1527541278.306096,0.290132,0.767338,-0.708205,-0.043824,-0.099722,-0.083179,0.205908,-0.694222,-0.689676,0.017115,-0.004829,0.082330,20.640600,6.736900,-10.602253,,,,,,,
,,,,,,,,,,,,,,,,6.233360,-75.540576,1640.744541,3.110000,309.375000,1527541278.999708,
1527541279.306546,0.271147,0.711548,-0.786947,0.150422,0.227272,-0.219316,0.202846,-0.653007,-0.729678,-0.036708,0.025688,0.023242,18.767126,6.665916,-14.864307,,,,,,,
,,,,,,,,,,,,,,,,6.233392,-75.540607,1638.693516,3.790000,308.320312,1527541279.999627,
1527541280.306978,0.214250,0.723538,-0.782226,0.020824,-0.033755,-0.228168,0.159347,-0.662040,-0.732329,0.058670,0.015434,0.017577,-11.256937,-5.970711,-31.560734,,,,,,,
,,,,,,,,,,,,,,,,6.233423,-75.540642,1638.426182,4.590000,302.343750,1527541280.999548,
1527541281.307406,0.231291,0.758639,-0.785709,-0.150961,-0.080105,-0.059179,0.166371,-0.687934,-0.706443,0.027369,-0.064935,-0.053414,-12.245478,-7.470512,-29.982563,,,,,,,
,,,,,,,,,,,,,,,,6.233452,-75.540675,1638.867100,4.590000,306.210938,1527541281.999468,
1527541282.307837,0.471532,0.485367,-1.007253,0.234313,-1.559830,-1.526272,0.401787,-0.466533,-0.787980,-0.008049,-0.027775,0.021882,-3.093180,1.223732,-36.774891,,,,,,,
,,,,,,,,,,,,,,,,6.233477,-75.540705,1638.776768,4.410000,305.507812,1527541282.999393,
1527541283.308289,0.334796,0.726193,-1.157214,0.153686,0.569119,0.360949,0.245679,-0.664028,-0.706191,-0.024945,0.017910,0.041106,-19.422419,-13.984917,-36.848606,,,,,,,
,,,,,,,,,,,,,,,,6.233500,-75.540737,1639.010654,4.410000,301.640625,1527541283.999321,
1527541284.308753,0.401368,0.660371,-1.111614,0.532257,0.558215,0.387348,0.308543,-0.613410,-0.726999,-0.035335,0.003043,0.129831,-6.770945,-7.625145,-31.671268,,,,,,,
,,,,,,,,,,,,,,,,6.233521,-75.540773,1638.976719,4.520000,296.367188,1527541284.999252,
1527541285.309189,0.111399,0.823576,-0.668426,0.006348,0.058663,-0.026886,0.075550,-0.733581,-0.675388,-0.048801,0.028411,0.005497,-3.925913,-8.153465,-30.717503,,,,,,,
,,,,,,,,,,,,,,,,6.233539,-75.540805,1638.668369,3.860000,293.554688,1527541285.999185,
1527541286.309627,0.252841,0.577728,-0.789985,0.756756,-0.113563,0.558219,0.209556,-0.546122,-0.811071,-0.056114,0.109232,0.016408,-2.906656,-3.202324,-35.062260,,,,,,,
,,,,,,,,,,,,,,,,6.233554,-75.540832,1637.517490,3.860000,298.476562,1527541286.999119,
1527541287.310083,0.222703,0.739938,-0.905573,-0.457222,-0.277412,0.430660,0.163112,-0.674242,-0.720270,0.026311,-0.184919,-0.071691,-2.069681,-10.330574,-30.210941,,,,,,,
,,,,,,,,,,,,,,,,6.233570,-75.540856,1637.890293,3.120000,303.046875,1527541287.999058,
1527541288.310529,0.428033,0.666815,-1.248104,0.326832,0.148251,0.284138,0.326169,-0.618486,-0.714903,-0.068631,-0.032988,0.082091,0.492361,-9.131294,-33.900883,,,,,,,
,,,,,,,,,,,,,,,,6.233586,-75.540878,1637.600498,2.800000,307.968750,1527541288.998995,
1527541289.310967,0.356120,0.769593,-1.160336,0.329037,1.370603,0.942026,0.250391,-0.695843,-0.673130,0.047858,-0.051670,0.045994,-1.102991,-11.380943,-31.420338,,,,,,,
,,,,,,,,,,,,,,,,6.233609,-75.540911,1637.414951,2.800000,300.234375,1527541289.998940,
1527541290.311426,0.305075,0.811839,-1.089473,0.147876,-0.204474,0.608740,0.206700,-0.725554,-0.656388,-0.047673,-0.111162,0.036286,2.504629,-10.335808,-28.892979,,,,,,,
,,,,,,,,,,,,,,,,6.233634,-75.540954,1634.869541,4.600000,301.640625,1527541290.998882,
1527541291.311864,0.521385,0.441430,-1.534457,-0.181506,-0.655565,0.264345,0.450336,-0.427233,-0.784008,0.005749,0.042971,0.114819,1.478308,1.364449,-27.356541,,,,,,,
,,,,,,,,,,,,,,,,6.233658,-75.540997,1634.766514,4.600000,300.585938,1527541291.998829,
1527541292.312295,0.350623,0.378631,-1.516285,-0.259968,0.204245,-0.464363,0.319155,-0.369649,-0.872640,-0.012529,0.067861,-0.115596,-16.142359,-7.389198,-34.830082,,,,,,,
,,,,,,,,,,,,,,,,6.233668,-75.541035,1633.304600,4.600000,292.851562,1527541292.998774,
1527541293.312757,0.269985,0.374920,-1.420787,-0.461626,0.280241,0.137300,0.248190,-0.366198,-0.896828,-0.097159,0.091815,0.048302,-9.464594,1.754173,-34.928974,,,,,,,
,,,,,,,,,,,,,,,,6.233672,-75.541066,1633.581455,2.810000,285.117188,1527541293.998720,
1527541294.313195,0.193361,0.163778,-1.279130,-1.861784,-0.895293,-0.965219,0.189587,-0.163047,-0.968232,0.138584,-0.036599,0.127915,-0.010324,11.491219,-27.920811,,,,,,,
,,,,,,,,,,,,,,,,6.233682,-75.541093,1635.405918,2.810000,283.359375,1527541294.998670,
1527541295.313730,0.045004,0.331990,-1.136192,-0.575905,3.305241,0.262654,0.042532,-0.325925,-0.944438,-0.016638,-0.061114,0.010570,-2.808054,8.942955,-25.807590,,,,,,,
,,,,,,,,,,,,,,,,6.233699,-75.541122,1636.279209,3.260000,300.234375,1527541295.998621,
1527541296.315061,0.330121,0.203838,-1.400325,0.180615,0.400473,0.451838,0.317447,-0.202430,-0.926418,0.061063,0.074988,-0.126988,-5.749918,6.623741,-31.492802,,,,,,,
,,,,,,,,,,,,,,,,6.233726,-75.541145,1638.306065,3.280000,313.242188,1527541296.998569,
1527541297.315531,0.294475,0.602789,-1.385327,-0.044899,-0.057282,0.128177,0.239085,-0.566942,-0.788298,-0.075785,0.057161,-0.134783,-3.354120,-2.753151,-32.508015,,,,,,,
,,,,,,,,,,,,,,,,6.233757,-75.541159,1637.707920,3.260000,321.328125,1527541297.998522,
1527541298.315975,0.220720,0.688922,-1.335642,0.146716,-0.048825,0.052723,0.169000,-0.635706,-0.753201,0.001776,0.028619,-0.051196,-6.023233,-7.999992,-33.477436,,,,,,,
,,,,,,,,,,,,,,,,6.233784,-75.541172,1637.884190,3.110000,320.976562,1527541298.998478,
1527541299.316410,0.175151,0.744463,-1.286546,0.410653,-0.321814,0.731958,0.128157,-0.677577,-0.724195,-0.012953,0.013972,0.190824,-2.590906,-10.028862,-32.606541,,,,,,,
,,,,,,,,,,,,,,,,6.233808,-75.541190,1637.900303,2.970000,314.296875,1527541299.998433,
1527541300.316842,0.101698,0.542233,-1.315748,0.031205,-0.211716,0.338817,0.086960,-0.516050,-0.852130,-0.005737,-0.009707,-0.062039,-7.958231,-6.198372,-32.859394,,,,,,,
,,,,,,,,,,,,,,,,6.233831,-75.541216,1636.969639,3.320000,297.421875,1527541300.998388,
1527541301.317293,0.046499,0.555940,-1.313184,0.279929,-0.212871,-0.135841,0.039482,-0.527742,-0.848483,-0.011879,0.017229,0.014697,-9.434153,-3.718895,-38.842869,,,,,,,
,,,,,,,,,,,,,,,,6.233850,-75.541248,1636.696690,3.350000,290.390625,1527541301.998345,
1527541302.317796,0.173595,0.294893,-1.468688,-1.951441,0.608391,-0.673598,0.165268,-0.290638,-0.942451,0.027023,-0.064953,0.039192,-13.113443,4.312233,-43.747028,,,,,,,
,,,,,,,,,,,,,,,,6.233864,-75.541275,1638.153233,3.320000,323.085938,1527541302.998302,
1527541303.318235,0.173729,0.252015,-1.551362,0.505259,-0.229876,0.256482,0.167396,-0.249355,-0.953834,-0.096305,0.090588,0.130515,-13.274363,-5.589363,-40.245655,,,,,,,
,,,,,,,,,,,,,,,,6.233880,-75.541298,1635.571201,2.820000,322.734375,1527541303.998261,
1527541304.318672,0.198956,0.155079,-1.609073,0.269428,0.044963,-0.023572,0.195274,-0.154458,-0.968509,-0.049308,-0.001777,0.026920,-40.417885,-5.630409,-53.855762,,,,,,,
,,,,,,,,,,,,,,,,6.233896,-75.541317,1635.049717,2.480000,313.593750,1527541304.998219,
1527541305.319085,0.172390,0.234078,-1.596376,0.437120,-0.573591,0.333791,0.166859,-0.231946,-0.958310,-0.058644,-0.053439,0.071088,-40.414879,-14.477211,-60.252888,,,,,,,
,,,,,,,,,,,,,,,,6.233913,-75.541334,1634.438389,2.650000,310.429688,1527541305.998178,
1527541306.319527,0.216483,0.206799,-1.722782,0.165632,-0.213588,-0.164254,0.210220,-0.205328,-0.955849,-0.090301,-0.027933,0.109246,-45.889381,-23.023567,-56.560932,,,,,,,
,,,,,,,,,,,,,,,,6.233932,-75.541352,1632.093662,2.650000,311.835938,1527541306.998138,
1527541307.319967,0.361984,0.109169,-1.958405,-0.217639,0.190807,-0.369226,0.352022,-0.108952,-0.929628,-0.025209,-0.034542,-0.007033,-32.943947,-16.223915,-31.809559,,,,,,,
,,,,,,,,,,,,,,,,6.233951,-75.541370,1631.999668,2.610000,311.132812,1527541307.998099,
1527541308.320412,0.268666,0.161359,-2.077399,0.090877,-0.039666,-0.091780,0.261997,-0.160660,-0.951601,-0.043400,0.029404,-0.112822,-44.197487,-15.695686,-15.754459,,,,,,,
,,,,,,,,,,,,,,,,6.233968,-75.541391,1631.765049,2.600000,306.210938,1527541308.998058,
1527541309.324755,0.320648,1.037994,-2.471770,0.166322,0.215707,0.240535,0.160091,-0.861387,-0.482045,-0.008953,-0.003512,-0.017909,-25.962656,-5.218132,-7.305912,,,,,,,
,,,,,,,,,,,,,,,,6.233988,-75.541411,1631.500401,2.600000,307.617188,1527541309.998023,
1527541310.325202,0.189309,0.766485,-1.462828,-0.918936,0.609831,0.858112,0.135555,-0.693607,-0.707478,0.014942,-0.185925,0.007695,-8.159159,6.468239,-15.651325,,,,,,,
,,,,,,,,,,,,,,,,6.234008,-75.541430,1631.231113,2.630000,312.187500,1527541310.997985,
1527541311.325640,0.060429,0.332574,-1.284482,0.434808,0.942063,-0.118188,0.057083,-0.326477,-0.943479,0.030975,0.004654,-0.076800,-14.605677,16.071526,-9.357182,,,,,,,
,,,,,,,,,,,,,,,,6.234028,-75.541445,1630.740391,2.630000,307.617188,1527541311.997947,
1527541312.326079,0.048165,0.347041,-1.407801,0.432383,-0.327961,0.344746,0.045276,-0.340117,-0.939291,-0.009586,0.030745,0.078864,-32.555855,13.164009,-8.413807,,,,,,,
,,,,,,,,,,,,,,,,6.234044,-75.541460,1631.446690,2.380000,304.804688,1527541312.997910,
1527541313.326505,0.122734,0.388830,-1.481511,0.445670,0.189601,-0.310230,0.113287,-0.379106,-0.918391,-0.015249,0.091416,0.200251,-33.606285,13.015877,-10.056828,,,,,,,
,,,,,,,,,,,,,,,,6.234062,-75.541478,1631.234287,2.380000,304.101562,1527541313.997873,
1527541314.326891,0.112816,0.387714,-1.545510,0.043931,0.135524,-0.604094,0.104221,-0.378074,-0.919889,0.059918,-0.050592,0.067548,-34.514336,12.339500,-5.477146,,,,,,,
,,,,,,,,,,,,,,,,6.234085,-75.541496,1631.097569,2.710000,307.968750,1527541314.997834,
1527541315.327348,0.088961,0.403173,-1.562521,-0.347477,0.039066,0.227380,0.081720,-0.392339,-0.916182,-0.088464,-0.103129,-0.161226,-26.176813,13.905373,-3.881611,,,,,,,
,,,,,,,,,,,,,,,,6.234110,-75.541516,1630.852451,3.420000,310.429688,1527541315.997803,
1527541316.327821,0.077429,0.472793,-1.526730,-0.064757,-0.430790,0.439698,0.068866,-0.455375,-0.887629,-0.049426,0.020179,0.030787,-5.475061,14.035332,-5.226200,,,,,,,
,,,,,,,,,,,,,,,,6.234138,-75.541541,1631.158360,3.890000,309.375000,1527541316.997766,
1527541317.328256,0.071036,0.428717,-1.518111,-0.501285,0.612401,-0.675430,0.064553,-0.415704,-0.907204,-0.004830,-0.037726,0.047112,39.482597,17.444054,-12.582371,,,,,,,
,,,,,,,,,,,,,,,,6.234164,-75.541566,1631.295811,3.420000,310.429688,1527541317.997730,
1527541318.328683,0.114098,0.244569,-1.550389,0.121116,0.171056,-0.451660,0.110462,-0.242138,-0.963932,0.064480,0.020794,-0.046962,7.097311,19.052483,-14.676655,,,,,,,
,,,,,,,,,,,,,,,,6.234188,-75.541589,1631.198643,3.370000,312.890625,1527541318.997695,
1527541319.329117,0.035337,0.295914,-1.506048,-0.612551,0.190130,-0.174827,0.033794,-0.291614,-0.955938,-0.001324,0.019764,-0.068720,10.815496,15.373222,-13.586887,,,,,,,
,,,,,,,,,,,,,,,,6.234208,-75.541610,1632.020908,3.300000,311.484375,1527541319.997661,
1527541320.329553,0.028054,0.353443,-1.485266,-0.528772,0.879254,-0.688599,0.026317,-0.346130,-0.937816,0.029073,-0.088608,-0.094013,13.816229,15.519707,-12.557514,,,,,,,
,,,,,,,,,,,,,,,,6.234226,-75.541637,1631.572178,3.690000,302.695312,1527541320.997627,
1527541321.329969,0.032641,0.350264,-1.498747,0.075326,0.244326,-0.069447,0.030654,-0.343146,-0.938781,-0.034209,0.030447,-0.035554,10.070028,15.601555,-18.756092,,,,,,,
,,,,,,,,,,,,,,,,6.234238,-75.541666,1631.460361,3.690000,294.609375,1527541321.997593,
1527541322.330397,0.071682,0.376680,-1.516452,0.693380,-0.158796,0.577174,0.066599,-0.367835,-0.927502,-0.002146,0.026420,0.073849,12.221594,13.122047,-14.052341,,,,,,,
,,,,,,,,,,,,,,,,6.234248,-75.541692,1632.925205,3.240000,293.203125,1527541322.997559,
1527541323.330832,0.192165,0.328319,-1.537579,-1.454257,0.986818,0.140969,0.180783,-0.322452,-0.929161,-0.011761,0.057346,0.146797,19.918264,27.290596,-16.545811,,,,,,,
,,,,,,,,,,,,,,,,6.234261,-75.541718,1632.093662,2.970000,298.476562,1527541323.997524,
1527541324.331240,0.112197,0.325564,-1.607089,-0.982730,0.294768,-0.596553,0.106080,-0.319843,-0.941513,-0.007463,-0.000180,0.000686,5.124273,16.354347,-14.444584,,,,,,,
,,,,,,,,,,,,,,,,6.234279,-75.541745,1632.198154,3.240000,303.398438,1527541324.997491,
1527541325.331671,0.081183,0.332085,-1.650835,0.134438,0.103947,-0.479962,0.076663,-0.326014,-0.942251,0.067884,-0.088018,-0.026743,3.470510,15.608574,-19.609882,,,,,,,
,,,,,,,,,,,,,,,,6.234300,-75.541771,1631.283604,3.650000,304.453125,1527541325.997459,
1527541326.332084,0.102233,0.309167,-1.738260,-0.521646,0.436427,-0.609153,0.097216,-0.304266,-0.947613,0.002485,-0.058710,0.005063,-4.204447,12.467995,-23.089008,,,,,,,
,,,,,,,,,,,,,,,,6.234325,-75.541800,1631.489170,4.070000,307.265625,1527541326.997425,
1527541327.332491,0.130102,0.248390,-1.874492,0.059533,-0.013840,-0.068002,0.125754,-0.245844,-0.961117,-0.081900,-0.153082,-0.041385,-8.587305,17.645515,-19.370380,,,,,,,
,,,,,,,,,,,,,,,,6.234349,-75.541824,1632.987461,3.690000,310.429688,1527541327.997391,
1527541328.332928,0.087325,0.254246,-2.070575,0.145251,-0.493317,-0.026070,0.084410,-0.251515,-0.964165,-0.081847,0.029897,0.157189,-16.774240,16.080070,-22.091984,,,,,,,
,,,,,,,,,,,,,,,,6.234374,-75.541846,1633.637119,3.930000,311.484375,1527541328.997359,
1527541329.333337,0.121755,0.175274,-2.271585,0.010446,0.026088,0.230895,0.119594,-0.174378,-0.977389,-0.117396,-0.134231,-0.104581,-23.601496,15.861504,-21.294743,,,,,,,
,,,,,,,,,,,,,,,,6.234400,-75.541872,1633.213535,3.930000,311.484375,1527541329.997326,
1527541330.333711,0.131605,0.194058,-2.518157,0.364297,-0.411930,-0.164090,0.128763,-0.192842,-0.972745,-0.053293,-0.073225,-0.031757,-30.390909,10.995216,-25.159382,,,,,,,
,,,,,,,,,,,,,,,,6.234433,-75.541896,1633.438877,4.620000,316.054688,1527541330.997293,
1527541331.334163,0.094184,0.196423,-2.698296,-0.209407,-0.392020,0.190384,0.092237,-0.195162,-0.976424,-0.023206,-0.066419,-0.064179,-31.144785,10.694664,-22.529865,,,,,,,
,,,,,,,,,,,,,,,,6.234471,-75.541904,1632.352695,4.620000,336.445312,1527541331.997261,
1527541332.334539,0.055012,0.203902,-2.859520,0.105659,0.554377,-0.127225,0.053845,-0.202492,-0.977803,-0.109707,0.007530,-0.013866,-40.172523,7.403923,-22.999882,,,,,,,
,,,,,,,,,,,,,,,,6.234513,-75.541895,1632.853428,4.180000,1.054688,1527541332.997230,
1527541333.334951,0.063425,0.252608,-2.987122,-0.326832,-0.244485,0.053549,0.061371,-0.249930,-0.966317,-0.033889,0.026450,0.097207,-42.282997,6.428841,-18.637547,,,,,,,
,,,,,,,,,,,,,,,,6.234555,-75.541870,1632.078037,4.180000,24.960938,1527541333.997196,
1527541334.335397,0.039870,0.214472,-3.047874,-0.292744,-0.504637,-0.519647,0.038946,-0.212831,-0.976312,0.061624,0.043779,-0.029456,-44.236992,5.906242,-19.525181,,,,,,,
,,,,,,,,,,,,,,,,6.234594,-75.541838,1631.809727,4.210000,31.640625,1527541334.997164,
1527541335.335776,0.075061,0.159114,-3.092935,-0.108045,0.165252,-0.320446,0.074043,-0.158444,-0.984588,0.051597,-0.041523,-0.033570,-49.114983,5.387535,-22.342335,,,,,,,
,,,,,,,,,,,,,,,,6.234631,-75.541806,1631.961826,4.130000,36.914062,1527541335.997133,
1527541336.336190,0.097718,0.152799,-3.099839,0.343717,-0.452507,0.425274,0.096426,-0.152205,-0.983634,-0.028464,0.032484,-0.038125,-54.178673,1.115227,-17.592564,,,,,,,
,,,,,,,,,,,,,,,,6.234665,-75.541774,1632.847569,4.230000,36.210938,1527541336.997100,
1527541337.336581,0.080725,0.116524,-3.084088,0.457078,0.326492,0.057262,0.080091,-0.116260,-0.989984,-0.016400,-0.007168,-0.047751,-21.968042,31.237633,-26.817738,,,,,,,
,,,,,,,,,,,,,,,,6.234700,-75.541744,1631.699619,4.130000,36.562500,1527541337.997069,
1527541338.336978,0.001841,0.174468,-2.989721,0.032250,-0.213789,0.305860,0.001813,-0.173585,-0.984817,-0.016279,-0.003249,0.041320,-36.230721,12.572853,-18.739552,,,,,,,
,,,,,,,,,,,,,,,,6.234736,-75.541716,1631.569736,4.230000,35.156250,1527541338.997037,
1527541339.337385,0.022458,0.176192,-3.013241,0.133527,0.265593,-0.046641,0.022108,-0.175282,-0.984270,0.005373,-0.053585,0.113954,-48.364479,5.536034,-20.847218,,,,,,,
,,,,,,,,,,,,,,,,6.234772,-75.541690,1631.513584,4.170000,34.804688,1527541339.997005,
1527541340.337795,-0.073043,0.350310,-2.715121,0.422393,1.197173,-0.590269,-0.068546,-0.343189,-0.936761,0.024464,0.141803,0.388467,-39.669579,13.702812,-21.787663,,,,,,,
,,,,,,,,,,,,,,,,6.234808,-75.541666,1631.456455,4.020000,31.992188,1527541340.996974,
1527541341.338181,-0.086953,0.447623,-2.813497,0.155686,-0.370624,0.498434,-0.078287,-0.432824,-0.898072,-0.046163,-0.024451,0.051987,-42.006584,3.727943,-17.371235,,,,,,,
,,,,,,,,,,,,,,,,6.234845,-75.541643,1631.556553,4.230000,33.398438,1527541341.996942,
1527541342.338619,-0.002868,0.379527,-2.995433,0.154530,0.115749,0.193605,-0.002664,-0.370481,-0.928836,0.052697,-0.069903,-0.064008,-47.489113,2.610390,-21.310658,,,,,,,
,,,,,,,,,,,,,,,,6.234880,-75.541621,1627.288242,4.070000,33.398438,1527541342.996911,
1527541343.339027,-0.060710,0.407502,-2.978318,0.179869,0.498530,-0.409412,-0.055704,-0.396317,-0.916421,0.060511,0.001237,0.117166,-37.864754,5.599709,-19.195560,,,,,,,
,,,,,,,,,,,,,,,,6.234916,-75.541597,1627.141758,4.230000,34.804688,1527541343.996880,
1527541344.339403,0.174881,0.542305,-3.071259,1.113329,0.404739,-0.593530,0.149027,-0.516111,-0.843455,-0.023066,0.164564,0.262706,-32.655556,0.571434,-23.069584,,,,,,,
,,,,,,,,,,,,,,,,6.234951,-75.541574,1626.476475,4.070000,35.156250,1527541344.996849,
1527541345.339804,-0.144426,0.561826,-2.627488,0.328368,0.138296,-0.058599,-0.121801,-0.532732,-0.837471,0.014608,0.021243,0.046089,-42.096123,10.555458,-22.228535,,,,,,,
,,,,,,,,,,,,,,,,6.234984,-75.541553,1624.904209,3.730000,34.804688,1527541345.996817,
1527541346.340230,-0.056788,0.567817,-2.703912,-0.191707,-0.091783,0.082082,-0.047851,-0.537793,-0.841716,0.013885,-0.029087,-0.090916,-28.596735,10.392723,-23.748447,,,,,,,
,,,,,,,,,,,,,,,,6.235017,-75.541535,1624.033604,3.730000,32.695312,1527541346.996786,
1527541347.340605,0.013604,0.600726,-2.827843,-0.371134,-0.442048,-1.481108,0.011222,-0.565242,-0.824846,0.034310,0.045573,0.178271,-37.079063,1.172249,-15.837116,,,,,,,
,,,,,,,,,,,,,,,,6.235049,-75.541517,1623.628330,3.730000,31.640625,1527541347.996754,
1527541348.341011,0.174111,0.359575,-2.964257,0.000909,-0.056174,0.344172,0.162154,-0.351876,-0.921893,0.023439,0.063790,-0.056638,-27.584879,5.891823,-23.991779,,,,,,,
,,,,,,,,,,,,,,,,6.235083,-75.541501,1622.323154,3.740000,25.664062,1527541348.996723,
1527541349.341452,-0.064366,0.312194,-2.548987,-1.754413,1.103362,0.024369,-0.061212,-0.307147,-0.949691,-0.044348,-0.070386,-0.241563,-27.312952,11.069481,-29.830738,,,,,,,
,,,,,,,,,,,,,,,,6.235114,-75.541489,1623.912022,3.740000,19.687500,1527541349.996691,
1527541350.341843,0.092118,0.322011,-2.471448,0.263483,-0.175092,0.143682,0.087259,-0.316475,-0.944578,0.100119,-0.014015,0.128309,-21.142786,13.388771,-30.768131,,,,,,,
,,,,,,,,,,,,,,,,6.235146,-75.541481,1623.017979,3.450000,10.898438,1527541350.996660,
1527541351.342254,-0.059154,0.396458,-2.179300,0.173085,-0.194165,0.300708,-0.054534,-0.386153,-0.920820,0.016006,-0.022721,-0.037600,-10.919611,16.376335,-26.332233,,,,,,,
,,,,,,,,,,,,,,,,6.235173,-75.541477,1622.787022,3.450000,10.546875,1527541351.996629,
1527541352.342631,0.083980,0.473296,-2.175941,-0.003348,0.130029,0.161923,0.074660,-0.455822,-0.886933,0.037401,-0.051960,-0.067322,-9.876673,6.105522,-36.790211,,,,,,,
,,,,,,,,,,,,,,,,6.235202,-75.541477,1622.466221,3.430000,1.406250,1527541352.996598,
1527541353.343041,0.080507,0.398032,-2.147388,0.045819,0.391097,-0.099359,0.074133,-0.387605,-0.918839,0.015542,-0.065993,-0.049453,-16.001291,9.557686,-28.863712,,,,,,,
,,,,,,,,,,,,,,,,6.235233,-75.541483,1622.403233,3.180000,351.562500,1527541353.996568,
1527541354.343453,0.163185,0.438800,-2.206937,0.126333,-1.087915,0.508301,0.147070,-0.424854,-0.893235,0.089334,-0.080151,0.108643,-12.776941,9.405098,-30.161655,,,,,,,
,,,,,,,,,,,,,,,,6.235258,-75.541496,1623.728428,3.180000,316.406250,1527541354.996536,
1527541355.343837,0.169573,0.310375,-2.106256,0.255033,-0.337888,0.533892,0.160698,-0.305415,-0.938561,-0.009453,0.018337,0.139946,-3.445047,13.294609,-27.817265,,,,,,,
,,,,,,,,,,,,,,,,6.235279,-75.541514,1626.674229,2.790000,324.492188,1527541355.996506,
1527541356.344243,0.139011,0.371168,-1.842560,0.226363,0.193241,0.228270,0.129128,-0.362704,-0.922914,-0.026543,-0.024930,0.079271,-0.257944,8.866173,-27.325626,,,,,,,
,,,,,,,,,,,,,,,,6.235297,-75.541536,1626.570713,2.840000,304.101562,1527541356.996474,
1527541357.344656,0.326961,0.461320,-2.455424,-0.157055,-0.411182,-0.437503,0.287593,-0.445131,-0.848025,-0.000896,0.027757,0.008380,-8.188730,2.199974,-29.086796,,,,,,,
,,,,,,,,,,,,,,,,6.235316,-75.541560,1626.005772,2.840000,310.078125,1527541357.996444,
1527541358.345033,0.247606,0.356552,-2.460636,-0.453558,-0.024702,0.330820,0.229669,-0.349045,-0.908526,-0.021936,-0.038116,-0.054045,-10.405634,6.027748,-30.186695,,,,,,,
,,,,,,,,,,,,,,,,6.235334,-75.541590,1626.024326,3.140000,300.937500,1527541358.996413,
1527541359.345427,0.154392,0.409674,-2.370258,0.566546,-0.721305,0.839615,0.141054,-0.398310,-0.906340,-0.029146,0.032999,-0.006563,-13.511667,11.577644,-23.776081,,,,,,,
,,,,,,,,,,,,,,,,6.235346,-75.541616,1622.152744,3.140000,294.960938,1527541359.996381,
1527541360.345860,0.118878,0.452807,-2.269312,0.090844,-0.127648,0.359406,0.106646,-0.437492,-0.892875,-0.051089,-0.025597,0.001442,-24.555109,1.010063,-16.525196,,,,,,,
,,,,,,,,,,,,,,,,6.235352,-75.541638,1621.885899,2.360000,285.820312,1527541360.996351,
1527541361.346265,0.147554,0.683429,-2.214410,0.144141,-0.097168,0.113837,0.114001,-0.631456,-0.766986,-0.014223,0.051713,0.057116,-20.495081,1.982780,-20.076176,,,,,,,
,,,,,,,,,,,,,,,,6.235371,-75.541664,1620.676670,3.740000,296.718750,1527541361.996320,
1527541362.346658,0.072579,0.673520,-2.215291,-0.193819,-0.138812,0.241357,0.056680,-0.623741,-0.779573,-0.053445,0.034233,-0.060103,-33.027443,-7.754311,-20.837803,,,,,,,
,,,,,,,,,,,,,,,,6.235396,-75.541690,1620.002354,3.440000,307.617188,1527541362.996288,
1527541363.347082,0.032965,0.681408,-2.199328,0.150891,0.049367,-0.128926,0.025599,-0.629888,-0.776264,-0.058161,0.038365,-0.005688,-38.039177,-5.728249,-12.922657,,,,,,,
,,,,,,,,,,,,,,,,6.235419,-75.541706,1619.974033,3.440000,316.757812,1527541363.996258,
1527541364.347469,0.004992,0.659895,-2.186342,0.266654,-0.006819,0.209534,0.003944,-0.613034,-0.790046,-0.120246,-0.002750,-0.128884,-28.341364,-3.484215,-20.409931,,,,,,,
,,,,,,,,,,,,,,,,6.235436,-75.541711,1620.539707,2.340000,325.195312,1527541364.996227,
1527541365.347852,0.008081,0.660721,-2.225239,-0.292547,-0.106731,-0.016483,0.006381,-0.613687,-0.789524,-0.058352,0.062554,-0.031002,-23.721094,2.059349,-16.753407,,,,,,,
,,,,,,,,,,,,,,,,6.235448,-75.541713,1620.341953,1.260000,325.195312,1527541365.996196,
1527541366.348267,-0.021021,0.671179,-2.204700,0.160575,-0.059203,0.060729,-0.016460,-0.621909,-0.782916,-0.079441,-0.008706,0.039065,-25.446527,2.134972,-14.566135,,,,,,,
,,,,,,,,,,,,,,,,6.235448,-75.541713,1619.807041,0.000000,325.898438,1527541366.996166,
1527541367.348652,0.015056,0.640854,-2.273179,0.107949,0.023604,0.213055,0.012068,-0.597880,-0.801495,0.006349,0.006449,-0.019932,-18.305689,3.705330,-19.562199,,,,,,,
,,,,,,,,,,,,,,,,6.235448,-75.541713,1619.199131,0.000000,325.898438,1527541367.996135,
1527541368.349062,-0.006030,0.636402,-2.247974,0.006447,0.022627,-0.066133,-0.004849,-0.594306,-0.804224,0.014493,-0.022058,0.018122,-7.701059,6.773293,-26.678761,,,,,,,
,,,,,,,,,,,,,,,,6.235448,-75.541713,1619.257236,0.000000,325.898438,1527541368.996104,
1527541369.349438,-0.004101,0.643853,-2.235522,-0.003216,0.023950,-0.021501,-0.003280,-0.600281,-0.799782,-0.019654,-0.030334,0.016564,-9.205896,6.323769,-24.644352,,,,,,,
,,,,,,,,,,,,,,,,6.235448,-75.541713,1619.030186,0.000000,325.898438,1527541369.996073,
1527541370.349848,-0.143855,0.615083,-2.103554,0.115135,-0.084597,0.043676,-0.117085,-0.577027,-0.808289,-0.054820,-0.052642,0.047303,-13.771219,7.676521,-21.009022,,,,,,,
,,,,,,,,,,,,,,,,6.235448,-75.541713,1619.248203,0.000000,325.898438,1527541370.996042,
1527541371.350239,-0.011718,0.632073,-2.223424,-0.020385,-0.028515,0.101096,-0.009454,-0.590818,-0.806748,0.015359,0.015760,0.031098,-14.455057,6.701637,-19.881672,,,,,,,
,,,,,,,,,,,,,,,,6.235448,-75.541713,1619.347569,0.000000,325.898438,1527541371.996012,
1527541372.350646,-0.034965,0.614734,-2.201736,-0.054867,0.031317,-0.082600,-0.028558,-0.576741,-0.816426,0.014200,-0.022273,-0.033427,-11.665827,8.274727,-21.622257,,,,,,,
,,,,,,,,,,,,,,,,6.235448,-75.541713,1619.000889,0.000000,325.898438,1527541372.995981,
1527541373.351031,-0.029155,0.627709,-2.189873,-0.039942,-0.000241,-0.004153,-0.023594,-0.587292,-0.809031,0.007145,-0.007236,0.026301,-8.743631,7.748466,-24.944035,,,,,,,
,,,,,,,,,,,,,,,,6.235448,-75.541713,1618.550205,0.000000,325.898438,1527541373.995951,
1527541374.351412,-0.032526,0.627943,-2.178676,0.031492,0.011174,-0.004571,-0.026317,-0.587482,-0.808810,-0.006062,-0.010678,0.017611,-10.164179,8.423607,-22.382404,,,,,,,
,,,,,,,,,,,,,,,,6.235448,-75.541713,1619.291904,0.000000,325.898438,1527541374.995919,
1527541375.351794,-0.030732,0.626923,-2.172882,0.000001,0.013548,0.019229,-0.024884,-0.586656,-0.809454,-0.001529,-0.012282,0.013769,-11.294382,7.824608,-22.150990,,,,,,,
,,,,,,,,,,,,,,,,6.235448,-75.541713,1619.911533,0.000000,325.898438,1527541375.995890,
1527541376.352208,0.433228,0.327612,-2.345491,-0.476389,0.577243,-0.065629,0.397475,-0.321783,-0.859342,0.067918,-0.148234,-0.070177,-10.685205,8.948631,-21.402439,,,,,,,
,,,,,,,,,,,,,,,,6.235448,-75.541713,1619.427647,0.000000,325.898438,1527541376.995859,
1527541377.352557,0.183040,0.306690,-2.294159,-0.390748,-1.111436,1.143160,0.173526,-0.301905,-0.937413,0.123761,-0.584783,-0.457119,-21.732630,6.557579,-17.206074,,,,,,,
,,,,,,,,,,,,,,,,6.235448,-75.541713,1619.110752,0.000000,325.898438,1527541377.995829,
1527541378.352959,0.280114,0.420588,-2.229603,-0.001429,-0.003818,-0.052345,0.252371,-0.408297,-0.877270,-0.011633,-0.057096,0.010998,-27.976419,4.462837,-15.217609,,,,,,,
,,,,,,,,,,,,,,,,6.235448,-75.541713,1619.063877,0.000000,325.898438,1527541378.995798,
1527541379.358291,0.456769,0.651499,-2.389882,-0.240542,0.426783,0.437352,0.350713,-0.606379,-0.713656,-0.031667,-0.012731,-0.034986,-18.103678,1.005089,-19.495365,,,,,,,
,,,,,,,,,,,,,,,,6.235448,-75.541713,1619.063877,0.000000,325.898438,1527541379.995767,
1527541380.358664,0.385038,0.815768,-2.311598,-0.204835,0.164325,0.049019,0.257398,-0.728252,-0.635133,-0.000440,-0.012059,0.000032,-22.832788,0.633873,-17.588184,,,,,,,
,,,,,,,,,,,,,,,,6.235448,-75.541713,1619.033604,0.000000,94.218750,1527541380.995736,
1527541381.359084,0.457955,0.612068,-2.215112,-0.117027,0.061644,-0.230581,0.361854,-0.574561,-0.734126,0.013695,-0.036874,0.002574,-16.489084,5.653557,-19.645054,,,,,,,
,,,,,,,,,,,,,,,,6.235448,-75.541713,1618.996494,0.000000,94.218750,1527541381.995706,
1527541382.359488,0.428615,0.639296,-2.220583,0.205412,-0.029596,0.061752,0.333535,-0.596631,-0.729921,-0.015740,-0.011951,-0.015379,-16.722712,4.604088,-20.246037,,,,,,,
,,,,,,,,,,,,,,,,6.235448,-75.541713,1618.746738,0.000000,20.390625,1527541382.995675,
1527541383.359853,0.425302,0.643331,-2.273182,0.137086,-0.029921,-0.057443,0.330119,-0.599864,-0.728824,-0.049311,0.016612,0.043766,-18.451532,4.230171,-18.959873,,,,,,,
,,,,,,,,,,,,,,,,6.235491,-75.541696,1617.691319,0.000000,6.328125,1527541383.995644,
1527541384.360231,0.373358,0.579197,-2.358710,0.047552,-0.145745,0.094537,0.305255,-0.547352,-0.779246,0.021146,-0.012401,-0.001012,-25.742212,2.585762,-15.537952,,,,,,,
,,,,,,,,,,,,,,,,6.235491,-75.541696,1617.322666,0.000000,249.257812,1527541384.995612,
1527541385.360658,0.360065,0.638355,-2.346505,-0.013090,-0.010002,-0.015241,0.282952,-0.595875,-0.751579,-0.014779,0.000493,0.021034,-23.035486,3.333427,-16.305027,,,,,,,
,,,,,,,,,,,,,,,,6.235491,-75.541696,1617.222569,0.000000,249.257812,1527541385.995583,
1527541386.361099,0.345380,0.644763,-2.345524,-0.005592,-0.058759,0.018201,0.270587,-0.601009,-0.752045,-0.016635,-0.020054,-0.000748,-24.907084,3.784843,-15.390797,,,,,,,
,,,,,,,,,,,,,,,,6.235491,-75.541696,1617.313877,0.000000,249.257812,1527541386.995552,
1527541387.361513,0.376266,0.614979,-2.412243,0.011138,-0.024280,-0.089394,0.300128,-0.576941,-0.759646,-0.008410,-0.009439,-0.004285,-22.883081,3.633125,-16.005344,,,,,,,
,,,,,,,,,,,,,,,,6.235491,-75.541696,1617.579990,0.000000,249.257812,1527541387.995521,
1527541388.361897,0.444644,0.618823,-2.459106,-0.023343,0.025055,-0.026278,0.350373,-0.580077,-0.735357,-0.018799,-0.005098,-0.000406,-31.537012,0.340828,-14.077991,,,,,,,
,,,,,,,,,,,,,,,,6.235491,-75.541696,1617.821201,0.000000,249.257812,1527541388.995491,
1527541389.362309,0.384253,0.732734,-2.352617,-0.030113,-0.019105,0.065563,0.278657,-0.668904,-0.689143,-0.000291,0.003545,0.030070,-28.505762,3.938469,-15.440220,,,,,,,
,,,,,,,,,,,,,,,,6.235491,-75.541696,1618.270420,0.000000,249.257812,1527541389.995460,
1527541390.362711,0.376813,0.737185,-2.358397,-0.018260,0.002750,-0.019678,0.272424,-0.672206,-0.688421,0.000449,-0.006200,0.001654,-37.210075,3.645348,-11.780018,,,,,,,
,,,,,,,,,,,,,,,,6.235491,-75.541696,1618.456944,0.000000,249.257812,1527541390.995430,
1527541391.363092,0.378436,0.742054,-2.356438,-0.014446,-0.006752,-0.003533,0.272328,-0.675803,-0.684929,-0.007039,0.001151,0.009910,-42.088127,3.349678,-10.696613,,,,,,,
,,,,,,,,,,,,,,,,6.235491,-75.541696,1618.476963,0.000000,249.257812,1527541391.995399,
1527541392.363501,0.375429,0.745793,-2.350547,-0.021293,0.003145,0.057172,0.269339,-0.678555,-0.683389,-0.010550,-0.015339,0.011224,-41.179970,4.323662,-10.475529,,,,,,,
,,,,,,,,,,,,,,,,6.235491,-75.541696,1618.666416,0.000000,249.257812,1527541392.995368,
1527541393.363885,0.374696,0.749277,-2.345344,-0.000119,0.019703,-0.018208,0.267971,-0.681109,-0.681382,0.005512,-0.056806,0.050370,-40.294960,2.448723,-12.361423,,,,,,,
,,,,,,,,,,,,,,,,6.235495,-75.541697,1619.152988,0.150000,333.632812,1527541393.995337,
1527541394.364260,0.377263,0.759175,-2.363031,0.086704,-0.051394,0.075996,0.267223,-0.688323,-0.674391,0.011372,-0.005204,0.041838,-34.861473,6.492409,-10.589344,,,,,,,
,,,,,,,,,,,,,,,,6.235499,-75.541700,1619.189121,0.150000,327.304688,1527541394.995306,
1527541395.364671,0.383488,0.760542,-2.387739,0.033240,-0.034531,0.003062,0.271063,-0.689314,-0.671841,0.023493,-0.005037,0.035076,-36.600822,4.769432,-11.181477,,,,,,,
,,,,,,,,,,,,,,,,6.235506,-75.541708,1619.358311,1.260000,318.867188,1527541395.995276,
1527541396.365075,0.362734,0.761456,-2.383157,-0.065692,-0.035695,0.121365,0.256838,-0.689976,-0.676732,0.009626,-0.119579,0.009953,-25.672159,11.207451,-9.066883,,,,,,,
,,,,,,,,,,,,,,,,6.235515,-75.541721,1619.489170,1.660000,310.781250,1527541396.995246,
1527541397.365479,0.374377,0.757852,-2.397250,0.015013,-0.048309,0.213122,0.265608,-0.687363,-0.676006,-0.015104,0.001663,0.024837,-21.368357,14.503944,-10.663761,,,,,,,
,,,,,,,,,,,,,,,,6.235524,-75.541739,1620.208897,1.660000,299.179688,1527541397.995214,
1527541398.365857,0.352544,0.761867,-2.386732,-0.071662,-0.032310,-0.060411,0.249831,-0.690274,-0.679046,-0.005736,-0.095386,-0.058320,-23.874704,10.756935,-11.630589,,,,,,,
,,,,,,,,,,,,,,,,6.235533,-75.541760,1620.092197,2.230000,296.367188,1527541398.995184,
1527541399.366241,0.366369,0.768981,-2.406560,-0.025657,-0.058296,0.094636,0.257429,-0.695403,-0.670926,-0.048872,0.062270,0.006924,-20.996759,14.053993,-11.492496,,,,,,,
,,,,,,,,,,,,,,,,6.235543,-75.541782,1619.553623,2.310000,308.320312,1527541399.995153,
1527541400.366644,0.363891,0.771374,-2.399085,-0.041305,-0.059156,0.123102,0.255172,-0.697121,-0.670003,-0.011642,-0.005531,-0.009120,-39.819817,23.891136,1.863857,,,,,,,
,,,,,,,,,,,,,,,,6.235559,-75.541805,1619.750401,2.670000,307.617188,1527541400.995123,
1527541401.367032,0.271182,0.742904,-2.310865,-0.043421,0.338075,-0.155849,0.197288,-0.676429,-0.709589,-0.109397,0.085670,-0.117346,-29.776728,4.836128,-8.229084,,,,,,,
,,,,,,,,,,,,,,,,6.235579,-75.541826,1620.071201,2.890000,314.648438,1527541401.995093,
1527541402.367436,0.274208,0.751884,-2.336432,0.037062,0.068109,-0.090077,0.197782,-0.683016,-0.703113,0.014148,0.027453,0.047382,-25.690027,8.884346,-12.822559,,,,,,,
,,,,,,,,,,,,,,,,6.235601,-75.541848,1619.834629,2.890000,318.164062,1527541402.995062,
1527541403.367849,0.135349,0.790892,-2.227508,-0.863356,-0.222640,0.166456,0.094888,-0.710981,-0.696777,-0.093622,-0.022158,-0.025208,-26.151423,7.609245,-11.697529,,,,,,,
,,,,,,,,,,,,,,,,6.235626,-75.541868,1619.968662,2.960000,319.921875,1527541403.995031,
1527541404.368250,0.181156,0.729616,-2.255428,0.260778,0.090243,-0.169056,0.134301,-0.666583,-0.733230,0.053931,0.033924,0.051590,-41.794258,11.449425,-10.753422,,,,,,,
,,,,,,,,,,,,,,,,6.235650,-75.541888,1620.510410,3.080000,318.515625,1527541404.995000,
1527541405.368604,0.178560,0.716386,-2.236695,-0.084218,0.066832,-0.013983,0.133952,-0.656663,-0.742191,0.009343,-0.023253,-0.059170,-29.825937,7.390266,-16.397343,,,,,,,
,,,,,,,,,,,,,,,,6.235674,-75.541910,1620.174717,3.170000,317.460938,1527541405.994969,
1527541406.368992,0.168128,0.722298,-2.176848,-0.127826,0.030531,0.351500,0.125551,-0.661111,-0.739707,-0.054628,-0.009071,-0.126641,-20.203135,10.154961,-15.032795,,,,,,,
,,,,,,,,,,,,,,,,6.235694,-75.541933,1619.393955,3.170000,315.351562,1527541406.994939,
1527541407.369399,0.158288,0.724166,-2.104157,-0.364221,-0.010880,0.174884,0.118071,-0.662511,-0.739686,0.002489,0.042912,-0.070372,-13.529139,10.072975,-14.404713,,,,,,,
,,,,,,,,,,,,,,,,6.235711,-75.541953,1618.822666,2.660000,310.781250,1527541407.994909,
1527541408.369804,0.169168,0.716136,-2.033322,-0.359457,0.125403,0.007953,0.127003,-0.656475,-0.743577,-0.010350,0.069714,-0.091171,-11.704203,4.072105,-16.307499,,,,,,,
,,,,,,,,,,,,,,,,6.235726,-75.541975,1618.351719,2.590000,305.859375,1527541408.994878,
1527541409.370174,0.149406,0.713769,-1.950941,0.003830,0.034198,0.120741,0.112515,-0.654687,-0.747474,0.002689,0.008142,-0.088250,-4.258265,6.316521,-20.029011,,,,,,,
,,,,,,,,,,,,,,,,6.235735,-75.541990,1618.108799,2.310000,301.992188,1527541409.994848,
1527541410.370559,0.149533,0.712695,-1.908752,0.021944,0.031191,-0.045468,0.112715,-0.653875,-0.748153,-0.009352,-0.062876,-0.033555,8.582846,8.030220,-23.114613,,,,,,,
,,,,,,,,,,,,,,,,6.235740,-75.541998,1618.970615,0.770000,291.445312,1527541410.994817,
1527541411.370958,0.173384,0.711313,-1.889051,0.043480,0.009135,0.025634,0.130681,-0.652829,-0.746142,-0.024602,0.006589,0.016222,10.674063,6.903923,-24.707066,,,,,,,
,,,,,,,,,,,,,,,,6.235743,-75.542005,1619.160557,0.790000,280.898438,1527541411.994786,
1527541412.371379,0.180153,0.706114,-1.851998,0.016908,-0.006738,0.020749,0.136336,-0.648882,-0.748571,-0.012968,-0.014265,0.017476,14.335150,5.176033,-26.237019,,,,,,,
,,,,,,,,,,,,,,,,6.235744,-75.542012,1618.999424,0.770000,301.640625,1527541412.994756,
1527541413.371737,0.183373,0.710035,-1.811951,-0.044131,0.052932,-0.000138,0.138281,-0.651860,-0.745623,0.002909,-0.059123,0.026461,16.804327,4.498497,-26.105991,,,,,,,
,,,,,,,,,,,,,,,,6.235746,-75.542019,1618.438389,0.550000,270.703125,1527541413.994725,
1527541414.372130,0.184878,0.706827,-1.775463,0.019863,0.022884,-0.007035,0.139786,-0.649424,-0.747466,-0.019410,0.012782,-0.006806,11.691137,3.077507,-23.898746,,,,,,,
,,,,,,,,,,,,,,,,6.235746,-75.542025,1618.836826,0.540000,291.445312,1527541414.994695,
1527541415.372534,0.183581,0.711411,-1.747736,-0.005860,-0.001242,0.037277,0.138272,-0.652904,-0.744713,0.006274,-0.044454,0.020455,9.294790,3.604073,-22.230656,,,,,,,
,,,,,,,,,,,,,,,,6.235747,-75.542031,1617.609043,0.370000,272.460938,1527541415.994664,
1527541416.372930,0.178849,0.720116,-1.734007,0.054694,0.025762,0.172231,0.133730,-0.659472,-0.739738,-0.041643,-0.005933,0.019813,12.747015,3.900322,-21.654087,,,,,,,
,,,,,,,,,,,,,,,,6.235747,-75.542037,1617.362217,0.370000,277.031250,1527541416.994634,
1527541417.373309,0.170819,0.720588,-1.689637,-0.008316,0.017788,0.011531,0.127733,-0.659827,-0.740481,-0.020464,-0.031290,0.013736,17.785635,5.470558,-22.210438,,,,,,,
,,,,,,,,,,,,,,,,6.235748,-75.542042,1617.234776,0.370000,278.437500,1527541417.994603,
1527541418.373700,0.161453,0.715962,-1.641324,-0.056348,0.016070,0.056300,0.121282,-0.656343,-0.744650,0.016978,-0.089155,0.049780,20.966436,9.141975,-21.398518,,,,,,,
,,,,,,,,,,,,,,,,6.235750,-75.542047,1617.178623,0.410000,278.437500,1527541418.994573,
1527541419.374103,0.151960,0.726336,-1.574832,-0.055439,0.036971,-0.017449,0.113171,-0.664135,-0.738997,0.048634,-0.066914,0.123595,23.621969,12.888023,-18.782734,,,,,,,
,,,,,,,,,,,,,,,,6.235753,-75.542063,1618.144199,0.410000,276.328125,1527541419.994541,
1527541420.374465,0.114587,0.751749,-1.447055,-0.219452,-0.029204,0.012910,0.083523,-0.682917,-0.725705,0.015675,-0.103506,0.064206,33.516228,12.203194,-18.928715,,,,,,,
,,,,,,,,,,,,,,,,6.235761,-75.542089,1619.294102,2.950000,284.414062,1527541420.994511,
1527541421.374854,0.118667,0.737356,-1.361179,-0.023188,0.073616,-0.106502,0.087637,-0.672333,-0.735043,0.061838,-0.112579,-0.027531,25.521109,7.034996,-16.560658,,,,,,,
,,,,,,,,,,,,,,,,6.235771,-75.542119,1619.450596,3.280000,286.171875,1527541421.994480,
1527541422.375240,0.154025,0.735828,-1.325258,-0.016284,-0.041568,-0.182921,0.113724,-0.671201,-0.732500,0.147613,-0.172549,-0.093077,37.326607,10.623207,-16.559330,,,,,,,
,,,,,,,,,,,,,,,,6.235783,-75.542151,1619.826572,3.280000,286.875000,1527541422.994450,
1527541423.375647,0.199371,0.766929,-1.330076,0.371275,0.236659,0.071507,0.142607,-0.693927,-0.705782,-0.057128,0.166293,0.010439,35.443825,9.650566,-17.523594,,,,,,,
,,,,,,,,,,,,,,,,6.235794,-75.542185,1620.103916,3.660000,284.062500,1527541423.994420,
1527541424.375993,0.213006,0.785748,-1.301398,-0.033947,-0.127529,-0.170287,0.149429,-0.707354,-0.690884,0.094101,-0.014387,-0.001590,39.224983,4.397591,-19.138187,,,,,,,
,,,,,,,,,,,,,,,,6.235802,-75.542216,1620.778721,3.660000,281.953125,1527541424.994388,
1527541425.376402,0.224715,0.844090,-1.280406,0.470938,0.127174,0.365920,0.148049,-0.747367,-0.647705,-0.105599,0.177192,0.049423,37.957588,5.447533,-16.501682,,,,,,,
,,,,,,,,,,,,,,,,6.235807,-75.542244,1620.032139,2.850000,280.546875,1527541425.994358,
1527541426.376781,0.232563,0.793949,-1.310855,-0.041721,-0.057744,0.182949,0.161568,-0.713127,-0.682160,-0.076897,0.055245,0.048265,38.814903,9.271492,-16.123127,,,,,,,
,,,,,,,,,,,,,,,,6.235809,-75.542273,1619.527256,3.670000,272.812500,1527541426.994328,
1527541427.377157,0.221663,0.761213,-1.361879,0.318970,-0.558017,-0.113403,0.159173,-0.689800,-0.706285,0.051063,0.021252,-0.013457,35.751579,10.624733,-16.473301,,,,,,,
,,,,,,,,,,,,,,,,6.235809,-75.542308,1619.026768,3.670000,269.296875,1527541427.994297,
1527541428.377532,0.197616,0.752501,-1.383024,0.418802,-0.016619,0.261426,0.143319,-0.683466,-0.715774,-0.088861,0.039561,0.021149,34.399086,10.103035,-20.365147,,,,,,,
,,,,,,,,,,,,,,,,6.235811,-75.542345,1618.717442,3.900000,269.296875,1527541428.994266,
1527541429.377950,0.233871,0.685137,-1.556038,0.238680,-0.443263,0.248614,0.179448,-0.632779,-0.753252,-0.080708,0.010373,0.048449,32.419014,15.429665,-19.662968,,,,,,,
,,,,,,,,,,,,,,,,6.235814,-75.542383,1618.519932,4.010000,273.515625,1527541429.994236,
1527541430.378309,0.320089,0.658374,-1.628198,0.145426,-0.210877,0.964668,0.248886,-0.611831,-0.750812,-0.209167,0.082397,0.049884,31.155813,17.153069,-13.949818,,,,,,,
,,,,,,,,,,,,,,,,6.235819,-75.542422,1618.922764,4.440000,275.273438,1527541430.994205,
1527541431.378683,0.432892,0.500408,-1.844237,-0.156618,-0.427644,0.086112,0.368062,-0.479783,-0.796454,-0.030431,-0.009826,-0.001673,13.059759,14.472893,-17.429844,,,,,,,
,,,,,,,,,,,,,,,,6.235830,-75.542461,1618.257725,4.440000,279.140625,1527541431.994174,
1527541432.379065,0.367143,0.543194,-1.722509,0.322733,0.112346,0.037566,0.307284,-0.516873,-0.799012,-0.075976,0.048733,0.162445,12.521109,21.822304,-15.157703,,,,,,,
,,,,,,,,,,,,,,,,6.235845,-75.542496,1617.858067,4.320000,287.929688,1527541432.994142,
1527541433.379441,0.409244,0.532121,-1.936159,-0.101773,0.030511,-0.079438,0.342897,-0.507362,-0.790573,-0.027879,0.059166,0.057144,18.633780,17.094078,-20.912312,,,,,,,
,,,,,,,,,,,,,,,,6.235866,-75.542526,1617.567539,4.040000,295.312500,1527541433.994111,
1527541434.379819,0.348849,0.509057,-1.915215,0.453342,-0.201075,0.385665,0.298476,-0.487354,-0.820608,-0.014021,-0.026761,0.056876,16.785376,20.320076,-19.241306,,,,,,,
,,,,,,,,,,,,,,,,6.235889,-75.542556,1617.296299,4.040000,294.609375,1527541434.994082,
1527541435.380206,0.335313,0.565465,-1.817036,-0.285781,-0.133740,0.093867,0.277843,-0.535808,-0.797316,-0.025752,-0.057469,0.035796,17.473913,21.894539,-19.542194,,,,,,,
,,,,,,,,,,,,,,,,6.235912,-75.542590,1616.819736,4.660000,297.070312,1527541435.994051,
1527541436.380568,0.342511,0.526752,-1.831672,0.405368,-0.026952,0.741896,0.290327,-0.502728,-0.814233,-0.068159,0.024365,-0.022910,22.041815,30.137810,-15.203556,,,,,,,
,,,,,,,,,,,,,,,,6.235949,-75.542631,1617.583897,5.310000,293.203125,1527541436.994021,
1527541437.380944,0.201341,0.479691,-1.578322,0.791914,0.478005,0.195457,0.177413,-0.461505,-0.869217,-0.091475,0.046786,0.063385,30.049276,28.253288,-12.189320,,,,,,,
,,,,,,,,,,,,,,,,6.235982,-75.542675,1618.238438,5.310000,298.125000,1527541437.993991,
1527541438.381343,0.328592,0.794742,-1.560253,-0.706573,-0.126488,-0.279697,0.226049,-0.713683,-0.662992,0.003077,-0.216081,-0.015429,18.828634,14.089272,-11.696186,,,,,,,
,,,,,,,,,,,,,,,,6.235999,-75.542723,1618.449863,5.780000,290.039062,1527541438.993960,
1527541439.381720,0.340716,0.670687,-1.587648,-0.309069,0.018482,-0.098361,0.261780,-0.621525,-0.738362,0.004684,0.008716,0.035466,29.936865,23.828590,-12.574589,,,,,,,
,,,,,,,,,,,,,,,,6.236026,-75.542775,1617.860264,6.270000,296.718750,1527541439.993930,
1527541440.382085,0.290174,0.689859,-1.540006,-0.048279,0.045120,0.121622,0.220694,-0.636429,-0.739089,-0.019980,-0.070389,0.022704,25.437796,23.908333,-13.067890,,,,,,,
,,,,,,,,,,,,,,,,6.236058,-75.542838,1618.444736,7.260000,296.367188,1527541440.993899,
1527541441.382491,0.269551,0.668431,-1.485185,-0.118019,-0.204107,0.397323,0.208990,-0.619755,-0.756456,0.040903,-0.114437,-0.080946,19.538305,18.287544,-9.665653,,,,,,,
,,,,,,,,,,,,,,,,6.236091,-75.542895,1618.684483,7.530000,297.421875,1527541441.993869,
1527541442.382838,0.234599,0.775093,-1.381040,0.456910,0.182189,0.298127,0.166054,-0.699782,-0.694788,-0.015953,0.020705,0.118418,27.045980,18.882652,-14.891712,,,,,,,
,,,,,,,,,,,,,,,,6.236122,-75.542955,1618.566807,7.530000,297.421875,1527541442.993838,
1527541443.383208,0.149203,0.780300,-1.308197,0.031904,-0.250338,0.194925,0.105646,-0.703493,-0.702807,0.039968,-0.046431,0.056521,28.771353,18.955666,-14.378620,,,,,,,
,,,,,,,,,,,,,,,,6.236157,-75.543023,1617.610996,7.530000,293.203125,1527541443.993808,
1527541444.383620,0.175240,0.801046,-1.330443,0.562187,0.003777,0.198644,0.121336,-0.718084,-0.685297,-0.059889,0.134115,0.075846,24.779943,16.935432,-15.930729,,,,,,,
,,,,,,,,,,,,,,,,6.236188,-75.543100,1615.813145,8.220000,295.312500,1527541444.993776,
1527541445.383995,0.237699,0.784235,-1.403919,1.155772,0.337605,0.030625,0.166694,-0.706284,-0.688024,-0.065238,0.265244,0.298879,34.798912,22.174843,-14.787754,,,,,,,
,,,,,,,,,,,,,,,,6.236217,-75.543168,1614.657627,8.940000,291.093750,1527541445.993746,
1527541446.384363,0.209408,0.670775,-1.437478,1.740401,0.504704,0.105369,0.162841,-0.621593,-0.766228,-0.156799,0.250194,0.071968,37.037010,29.597603,-14.784870,,,,,,,
,,,,,,,,,,,,,,,,6.236266,-75.543244,1614.380772,9.680000,300.585938,1527541446.993715,
1527541447.384765,0.398318,0.591511,-1.609029,0.522111,1.244003,-0.521654,0.321969,-0.557616,-0.765114,-0.098168,0.138472,-0.038291,6.898245,13.203331,-15.964878,,,,,,,
,,,,,,,,,,,,,,,,6.236310,-75.543320,1614.289707,9.680000,300.585938,1527541447.993685,
1527541448.385113,0.316418,0.613210,-1.559072,-0.205988,0.211787,0.392907,0.254472,-0.575495,-0.777206,-0.135438,0.047999,-0.013535,0.139837,3.013298,-22.393055,,,,,,,
,,,,,,,,,,,,,,,,6.236367,-75.543388,1614.097813,9.380000,301.640625,1527541448.993654,
1527541449.385533,0.279226,0.777870,-1.427571,0.117030,-0.636010,0.728013,0.196348,-0.701764,-0.684817,0.008379,-0.146244,-0.010510,-2.367899,-0.586327,-18.109486,,,,,,,
,,,,,,,,,,,,,,,,6.236411,-75.543461,1613.088291,9.940000,301.289062,1527541449.993623,
1527541450.385880,0.307600,0.480451,-1.586989,1.100157,-0.157859,0.387506,0.268494,-0.462179,-0.845164,0.043380,-0.027949,-0.079977,-6.598475,4.518929,-20.167118,,,,,,,
,,,,,,,,,,,,,,,,6.236465,-75.543545,1613.031101,9.980000,301.992188,1527541450.993591,
1527541451.391153,0.386074,0.629485,-1.658691,0.465167,-0.396532,-0.017321,0.304380,-0.588729,-0.748833,0.047350,-0.037507,0.213677,-11.847589,-21.355019,-11.795063,,,,,,,
,,,,,,,,,,,,,,,,6.236519,-75.543621,1613.438382,10.190000,301.289062,1527541451.993562,
1527541452.391535,0.326469,0.671611,-1.644377,0.509291,-0.120099,0.251130,0.251051,-0.622248,-0.741472,-0.063581,-0.008062,0.040743,-19.680353,-7.919151,-17.856632,,,,,,,
,,,,,,,,,,,,,,,,6.236591,-75.543690,1613.021549,10.400000,306.562500,1527541452.993532,
1527541453.391922,0.320577,0.676491,-1.728625,-0.729593,-0.165632,-0.259852,0.245718,-0.626060,-0.740048,-0.006811,-0.029396,0.027844,-1.891783,-2.945747,-30.008347,,,,,,,
,,,,,,,,,,,,,,,,6.236647,-75.543766,1612.072296,10.400000,306.562500,1527541453.993502,
1527541454.392299,0.242894,0.670567,-1.728451,0.129362,-0.226796,0.303017,0.188434,-0.621431,-0.760471,-0.135120,0.098451,0.043247,-21.879707,-10.051306,-16.223587,,,,,,,
,,,,,,,,,,,,,,,,6.236705,-75.543868,1611.077659,10.980000,307.265625,1527541454.993469,
1527541455.392677,0.278574,0.634718,-1.811589,0.686313,-0.202262,0.109335,0.221428,-0.592950,-0.774196,-0.053383,0.058298,0.106715,-20.015465,-20.029119,-14.311584,,,,,,,
,,,,,,,,,,,,,,,,6.236756,-75.543925,1609.826751,10.400000,311.132812,1527541455.993439,
1527541456.393065,0.198687,0.612886,-1.814209,-0.447392,-0.296913,-0.147866,0.161457,-0.575230,-0.801899,-0.013767,-0.099467,0.021656,-12.070118,-0.644230,3.250053,,,,,,,
,,,,,,,,,,,,,,,,6.236824,-75.543999,1609.826751,11.140000,312.890625,1527541456.993407,
1527541457.393527,0.190590,0.649816,-1.839362,-0.184951,0.321262,-0.244689,0.150830,-0.605040,-0.781778,-0.097363,0.039961,-0.061087,3.302309,15.138982,3.411827,,,,,,,
,,,,,,,,,,,,,,,,6.236886,-75.544074,1608.860734,10.850000,306.210938,1527541457.993379,
1527541458.393912,0.083147,0.702789,-1.805071,0.333875,-0.683349,0.782605,0.063372,-0.646348,-0.760406,-0.058412,0.051240,0.122650,-9.189651,26.052727,18.156517,,,,,,,
,,,,,,,,,,,,,,,,6.236944,-75.544153,1607.512082,10.850000,306.210938,1527541458.993349,
1527541459.394285,-0.021335,0.616725,-1.634935,-0.369316,0.069711,-0.317934,-0.017403,-0.578367,-0.815591,-0.122565,0.055250,0.014611,-4.998917,33.848015,19.196678,,,,,,,
,,,,,,,,,,,,,,,,6.237042,-75.544183,1606.175283,10.030000,326.601562,1527541459.993317,
1527541460.394661,0.092138,0.533489,-1.908883,-1.237678,0.486870,-0.467530,0.079222,-0.508540,-0.857386,-0.152373,0.090801,-0.145406,-13.361180,24.610653,31.670258,,,,,,,
,,,,,,,,,,,,,,,,6.237124,-75.544228,1604.961583,10.040000,328.359375,1527541460.993286,
1527541461.395052,0.166568,0.266786,-2.026671,-0.767115,1.996528,-0.459222,0.159933,-0.263633,-0.951272,-0.088873,0.086127,-0.209906,-2.623509,34.726635,28.245377,,,,,,,
,,,,,,,,,,,,,,,,6.237187,-75.544265,1603.861872,9.210000,331.523438,1527541461.993257,
1527541462.395435,0.163009,0.378022,-2.074946,1.310544,-1.074725,0.204032,0.150829,-0.369083,-0.917076,0.019382,-0.041866,0.099998,-46.460194,3.722316,24.574722,,,,,,,
,,,,,,,,,,,,,,,,6.237251,-75.544307,1602.268824,9.220000,324.843750,1527541462.993225,
1527541463.395820,0.250966,0.436801,-2.282604,0.447449,-0.662487,0.138979,0.225023,-0.423043,-0.877724,0.006193,0.064309,0.061272,-44.170109,-16.691380,47.382660,,,,,,,
,,,,,,,,,,,,,,,,6.237314,-75.544360,1601.347571,9.360000,321.679688,1527541463.993195,
1527541464.396162,0.352290,0.608107,-2.143456,0.006169,-0.286866,-0.341907,0.283191,-0.571315,-0.770326,0.055142,-0.058247,0.141969,-2.800812,-5.073627,-17.513947,,,,,,,
,,,,,,,,,,,,,,,,6.237389,-75.544414,1600.503068,9.580000,322.382812,1527541464.993165,
1527541465.396567,0.292223,0.613417,-2.130589,-0.933448,0.342791,-0.344292,0.235561,-0.575665,-0.783021,-0.006114,0.062374,0.042756,-5.785934,-12.195239,-18.335861,,,,,,,
,,,,,,,,,,,,,,,,6.237465,-75.544464,1599.394478,9.500000,323.437500,1527541465.993134,
1527541466.396949,0.243976,0.507242,-2.069819,0.574555,1.097560,-0.427020,0.211147,-0.485769,-0.848202,-0.095714,0.168432,-0.029652,-1.673752,-7.616274,-17.473980,,,,,,,
,,,,,,,,,,,,,,,,6.237530,-75.544550,1598.471990,9.860000,315.000000,1527541466.993104,
1527541467.397339,0.224819,0.541199,-2.046152,1.738182,-1.286597,0.696909,0.191072,-0.515164,-0.835522,0.051345,0.013013,0.187924,-15.181625,-9.065145,-14.307060,,,,,,,
,,,,,,,,,,,,,,,,6.237632,-75.544557,1597.499357,9.050000,328.710938,1527541467.993073,
1527541468.397714,0.144794,0.643489,-1.942296,-0.571428,-0.000900,-0.341952,0.115432,-0.599991,-0.791635,0.030106,-0.055847,0.073801,-14.973373,-2.017003,-10.990898,,,,,,,
,,,,,,,,,,,,,,,,6.237715,-75.544602,1596.644182,8.880000,328.359375,1527541468.993043,
1527541469.398114,0.247753,0.524718,-2.069128,-0.511142,-0.069795,-0.251616,0.212235,-0.500969,-0.839039,0.084961,-0.181877,-0.088756,-0.751144,-5.479573,-14.324120,,,,,,,
,,,,,,,,,,,,,,,,6.237784,-75.544631,1595.241891,8.300000,329.765625,1527541469.993012,
1527541470.398497,0.205408,0.486924,-1.978315,-0.605944,-0.020916,-0.328864,0.180261,-0.467910,-0.865197,0.052634,-0.028322,-0.076163,0.504776,5.725261,-1.221077,,,,,,,
,,,,,,,,,,,,,,,,6.237849,-75.544669,1594.819178,8.300000,329.765625,1527541470.992981,
1527541471.398896,0.162890,0.488183,-1.934467,0.181248,-0.676262,0.169842,0.143226,-0.469022,-0.871495,0.052406,-0.050814,0.064397,1.443314,9.567181,4.962189,,,,,,,
,,,,,,,,,,,,,,,,6.237881,-75.544672,1593.415674,6.750000,333.632812,1527541471.992950,
1527541472.399277,0.164397,0.506482,-1.939571,0.189126,0.141624,-0.151728,0.143112,-0.485104,-0.862666,-0.000274,0.054333,-0.038365,20.994762,23.548290,3.911598,,,,,,,
,,,,,,,,,,,,,,,,6.237926,-75.544703,1592.773432,6.500000,331.171875,1527541472.992920,
1527541473.399684,0.174678,0.534864,-1.945513,0.151284,-0.021022,-0.401126,0.149519,-0.509724,-0.847246,0.053698,0.001927,0.062044,12.786663,10.955425,6.037575,,,,,,,
,,,,,,,,,,,,,,,,6.237987,-75.544729,1591.775323,7.030000,333.984375,1527541473.992889,
1527541474.400090,0.205408,0.513858,-1.985716,0.838334,-0.377380,0.302597,0.177626,-0.491541,-0.852547,0.025774,-0.008978,0.060479,5.372478,12.609600,12.543617,,,,,,,
,,,,,,,,,,,,,,,,6.238055,-75.544804,1591.256448,8.000000,327.656250,1527541474.992859,
1527541475.400466,0.198017,0.536461,-1.961282,0.868156,-0.228195,0.405460,0.169090,-0.511098,-0.842726,0.018822,0.001347,0.094512,1.550518,13.062618,14.146507,,,,,,,
,,,,,,,,,,,,,,,,6.238119,-75.544840,1590.684172,6.960000,329.414062,1527541475.992828,
1527541476.400876,0.213752,0.515702,-1.959630,0.893927,-0.430167,0.204746,0.184540,-0.493146,-0.850148,0.076935,-0.060642,0.040059,-9.256306,12.471615,17.745674,,,,,,,
,,,,,,,,,,,,,,,,6.238176,-75.544872,1590.268511,7.040000,329.765625,1527541476.992797,
1527541477.401273,0.109411,0.518954,-1.893075,0.372619,0.542315,-0.440046,0.094816,-0.495972,-0.863146,0.019487,0.009385,0.002199,-16.776402,19.375362,25.315575,,,,,,,
,,,,,,,,,,,,,,,,6.238237,-75.544924,1589.421569,7.540000,328.710938,1527541477.992767,
1527541478.401677,0.062534,0.531328,-1.863592,-0.522916,-0.356479,0.457211,0.053878,-0.506678,-0.860450,-0.067092,-0.014272,-0.043511,-17.187107,24.099895,27.055260,,,,,,,
,,,,,,,,,,,,,,,,6.238296,-75.544950,1588.854366,7.460000,328.710938,1527541478.992736,
1527541479.402072,0.161311,0.538768,-1.902090,0.246833,-0.267730,-0.130999,0.137860,-0.513079,-0.847198,0.067752,-0.047956,0.104827,4.690449,10.177291,5.576542,,,,,,,
,,,,,,,,,,,,,,,,6.238325,-75.544991,1588.462753,5.870000,310.429688,1527541479.992706,
1527541480.402475,0.137961,0.479668,-1.932370,-0.564841,0.257510,-0.523092,0.122004,-0.461485,-0.878719,-0.008860,-0.074556,-0.065098,19.580303,10.251108,-5.830044,,,,,,,
,,,,,,,,,,,,,,,,6.238375,-75.545026,1588.097464,6.400000,319.921875,1527541480.992675,
1527541481.402872,0.218079,0.436721,-2.063420,0.123726,-0.336976,0.172802,0.196048,-0.422971,-0.884681,-0.037219,-0.037295,0.003761,15.443356,0.352442,-0.200817,,,,,,,
,,,,,,,,,,,,,,,,6.238426,-75.545056,1588.097464,6.630000,322.734375,1527541481.992645,
1527541482.403280,0.173373,0.481660,-2.109628,0.482629,-0.026645,0.012989,0.152880,-0.463251,-0.872941,-0.083589,-0.049765,0.010942,17.056118,-4.148138,-2.248363,,,,,,,
,,,,,,,,,,,,,,,,6.238503,-75.545086,1587.726280,7.770000,332.226562,1527541482.992614,
1527541483.403627,0.184266,0.511813,-2.209474,-0.194916,0.030064,-0.230261,0.159746,-0.489759,-0.857098,-0.068224,-0.086947,-0.088077,14.181194,10.331720,-6.242031,,,,,,,
,,,,,,,,,,,,,,,,6.238564,-75.545113,1587.420216,7.590000,336.093750,1527541483.992584,
1527541484.404026,0.066617,0.606831,-2.228826,-1.376868,-0.588730,0.532055,0.054682,-0.570267,-0.819637,-0.033717,-0.076401,-0.117771,15.625530,4.102549,-0.792721,,,,,,,
,,,,,,,,,,,,,,,,6.238619,-75.545132,1587.073419,7.070000,342.773438,1527541484.992553,
1527541485.404435,0.165594,0.541543,-2.308134,0.682096,-0.309995,0.256936,0.141252,-0.515459,-0.845192,-0.076982,0.061159,0.110833,18.256603,4.552179,-5.310009,,,,,,,
,,,,,,,,,,,,,,,,6.238686,-75.545156,1586.886750,6.820000,347.695312,1527541485.992522,
1527541486.404829,0.130225,0.526716,-2.290283,-0.110498,0.349501,-0.486559,0.112257,-0.502697,-0.857143,0.025637,-0.027836,-0.038655,-9.918762,-1.280264,4.259468,,,,,,,
,,,,,,,,,,,,,,,,6.238745,-75.545164,1586.899767,6.600000,347.695312,1527541486.992492,
1527541487.405209,0.172560,0.508432,-2.322717,0.807062,0.360237,0.044426,0.149986,-0.486809,-0.860536,-0.058128,0.094078,0.015168,-19.628258,-15.724640,4.751541,,,,,,,
,,,,,,,,,,,,,,,,6.238805,-75.545172,1586.539931,6.100000,350.156250,1527541487.992461,
1527541488.405600,0.049182,0.501748,-2.195135,-0.944097,0.670433,-0.508959,0.043103,-0.480959,-0.875683,-0.064725,0.082017,-0.033237,-19.772972,-6.051422,8.601746,,,,,,,
,,,,,,,,,,,,,,,,6.238856,-75.545183,1586.502131,5.250000,340.312500,1527541488.992431,
