timestamp(unix),attitude_roll(radians),attitude_pitch(radians),attitude_yaw(radians),rotation_rate_x(radians/s),rotation_rate_y(radians/s),rotation_rate_z(radians/s),gravity_x(G),gravity_y(G),gravity_z(G),user_acc_x(G),user_acc_y(G),user_acc_z(G),magnetic_field_x(microteslas),magnetic_field_y(microteslas),magnetic_field_z(microteslas),latitude(degree),longitude(degree),altitude(meter),speed(m/s),course(degree),timestamp(unix),User Mark
,,,,,,,,,,,,,,,,6.247151,-75.569335,1524.000000,-1.000000,-1.000000,1527538194.431236,
,,,,,,,,,,,,,,,,6.246987,-75.569392,1500.501465,-1.000000,-1.000000,1527538254.337966,
,,,,,,,,,,,,,,,,6.246983,-75.569396,1500.501465,-1.000000,-1.000000,1527538254.427765,
,,,,,,,,,,,,,,,,6.246983,-75.569396,1500.501465,-1.000000,-1.000000,1527538254.430559,
,,,,,,,,,,,,,,,,6.246983,-75.569396,1500.501465,-1.000000,-1.000000,1527538254.470961,
,,,,,,,,,,,,,,,,6.246983,-75.569396,1500.501465,-1.000000,-1.000000,1527538254.482662,
1527538254.722960,0.083826,0.479383,1.021945,0.435835,0.084800,1.345488,0.074290,-0.461232,-0.884164,-0.038691,-0.046046,-0.027625,7.605665,-21.709278,-14.877331,,,,,,,
,,,,,,,,,,,,,,,,6.246985,-75.569452,1500.379150,-1.000000,-1.000000,1527538254.771700,
1527538255.723366,0.129501,0.503233,0.964640,-0.035788,-0.157564,0.097474,0.113129,-0.482260,-0.868692,0.007461,0.038107,0.007226,9.629026,-21.787266,-12.941677,,,,,,,
,,,,,,,,,,,,,,,,6.246986,-75.569453,1500.294556,-1.000000,-1.000000,1527538256.001904,
,,,,,,,,,,,,,,,,6.246957,-75.569361,1500.336914,-1.000000,-1.000000,1527538256.339836,
1527538256.723772,0.138727,0.518177,0.928806,0.012268,0.006254,-0.051393,0.120129,-0.495297,-0.860377,-0.002453,0.011441,0.011729,10.746626,-22.613758,-12.201565,,,,,,,
1527538257.724200,0.135841,0.516253,0.907832,-0.048019,0.030175,0.016488,0.117775,-0.493625,-0.861663,0.000710,0.008472,-0.000398,11.655241,-21.564960,-11.605312,,,,,,,
1527538258.724598,0.134434,0.519180,0.920546,-0.111546,0.043088,0.002064,0.116368,-0.496168,-0.860393,-0.007801,0.016752,0.015880,11.497633,-22.390400,-10.406277,,,,,,,
1527538259.725026,0.136308,0.507077,0.910863,0.052703,0.048988,0.037047,0.118787,-0.485624,-0.866059,0.005908,0.016249,-0.007644,11.643690,-22.840656,-10.183422,,,,,,,
1527538260.725470,0.134591,0.507139,0.910575,-0.044073,0.025727,-0.014403,0.117296,-0.485678,-0.866232,-0.010210,0.002371,0.021704,12.093046,-22.916111,-10.186764,,,,,,,
1527538261.725904,0.136044,0.436609,0.901420,-0.063419,0.025813,-0.008478,0.122902,-0.422869,-0.897818,0.009194,0.013583,-0.009455,12.472517,-22.465839,-11.463284,,,,,,,
,,,,,,,,,,,,,,,,6.246981,-75.569341,1500.299561,-1.000000,-1.000000,1527538262.426442,
1527538262.726336,0.130308,0.421447,0.901559,-0.002027,0.016080,0.005875,0.118570,-0.409081,-0.904762,-0.000192,0.008401,0.000999,11.955473,-21.565037,-12.057415,,,,,,,
,,,,,,,,,,,,,,,,6.246992,-75.569350,1487.135777,0.000000,213.750000,1527538263.680803,
1527538263.726784,0.276396,0.484096,0.961997,-0.630254,1.356593,0.419353,0.241534,-0.465408,-0.851502,-0.086963,-0.005829,0.268159,12.836668,-23.592487,-8.918652,,,,,,,
,,,,,,,,,,,,,,,,6.246986,-75.569385,1488.007114,7.620000,-1.000000,1527538264.672533,
1527538264.727171,0.686874,0.109875,1.097411,0.899346,-0.311215,-0.785194,0.630299,-0.109654,-0.768569,0.069667,-0.029644,0.041824,18.957426,-18.347431,-11.273373,,,,,,,
,,,,,,,,,,,,,,,,6.246982,-75.569408,1487.832310,1.240000,242.578125,1527538265.678060,
1527538265.727606,1.240324,0.002706,0.880127,-1.823698,4.434764,-0.737202,0.945884,-0.002706,-0.324488,-0.011360,-0.042704,0.023997,25.356459,-14.834660,0.390614,,,,,,,
,,,,,,,,,,,,,,,,6.246996,-75.569420,1487.318150,0.990000,-1.000000,1527538266.685442,
1527538266.728053,0.912097,0.327289,1.116729,-0.195487,0.402262,-0.291626,0.748811,-0.321477,-0.579597,0.028685,0.034398,0.034706,17.126326,-21.648640,-5.193813,,,,,,,
,,,,,,,,,,,,,,,,6.247027,-75.569436,1487.599155,4.400000,314.296875,1527538267.687686,
1527538267.728466,0.904727,0.199982,1.071651,-0.205309,-0.146539,-0.149295,0.770587,-0.198651,-0.605585,-0.014621,-0.007159,-0.004522,18.257444,-21.048756,-7.225231,,,,,,,
,,,,,,,,,,,,,,,,6.247054,-75.569460,1488.002476,4.400000,316.406250,1527538268.677009,
1527538268.728904,1.086103,0.163745,1.788220,-1.124325,-0.003294,0.598049,0.872982,-0.163014,-0.459704,0.017887,0.029194,0.009433,14.051970,-22.016788,-12.748211,,,,,,,
,,,,,,,,,,,,,,,,6.247098,-75.569457,1488.366856,7.800000,320.273438,1527538269.677550,
1527538269.729337,0.901041,0.340715,1.386087,0.962863,-0.446229,-1.162555,0.738907,-0.334161,-0.585108,-0.076706,0.166406,0.246531,13.285597,-23.593983,-6.821789,,,,,,,
,,,,,,,,,,,,,,,,6.247079,-75.569393,1487.951206,7.800000,-1.000000,1527538270.674883,
1527538270.729810,0.703248,0.067281,1.342701,-0.655776,-0.505957,-0.745864,0.645236,-0.067230,-0.761020,0.165967,0.004578,-0.019132,18.659681,-18.121784,-11.945736,,,,,,,
,,,,,,,,,,,,,,,,6.247087,-75.569382,1487.616489,0.350000,-1.000000,1527538271.673871,
1527538271.730227,0.687322,0.132357,1.410170,0.369623,-0.353846,-0.122910,0.628920,-0.131971,-0.766187,0.070650,-0.037386,0.030775,16.539930,-20.370319,-10.661510,,,,,,,
,,,,,,,,,,,,,,,,6.246897,-75.569302,1488.047276,0.680000,338.554688,1527538272.672410,
1527538272.730694,0.438334,0.075626,1.373411,-0.190106,-0.839773,-2.121315,0.423218,-0.075554,-0.902872,-0.009797,0.013909,0.156504,12.797499,-19.764149,-15.508801,,,,,,,
,,,,,,,,,,,,,,,,6.246896,-75.569281,1488.016148,0.680000,203.906250,1527538273.688862,
1527538273.731141,0.052282,0.054475,1.252675,0.323371,2.301561,0.123727,0.052181,-0.054449,-0.997152,0.219639,-0.157878,0.111669,8.013899,-18.107059,-20.121181,,,,,,,
,,,,,,,,,,,,,,,,6.246916,-75.569338,1490.002598,0.780000,328.359375,1527538274.676991,
1527538274.731601,0.214997,-0.074227,1.643628,0.061420,-0.151124,-0.417381,0.212757,0.074159,-0.974287,0.057583,-0.118608,0.038130,8.329115,-16.233082,-18.693691,,,,,,,
,,,,,,,,,,,,,,,,6.246989,-75.569334,1491.205235,4.480000,21.093750,1527538275.691197,
1527538275.732073,0.182323,0.022358,1.582546,-0.044320,0.085559,0.080412,0.181269,-0.022356,-0.983179,0.099386,-0.038847,0.071802,3.760557,-24.253895,-17.931774,,,,,,,
,,,,,,,,,,,,,,,,6.246927,-75.569312,1490.556065,4.480000,64.335938,1527538276.679949,
1527538276.732498,0.667025,-0.008508,1.912028,0.544610,-0.227339,-0.407457,0.618629,0.008508,-0.785637,0.203668,-0.121484,0.002099,-3.182665,-20.497105,-17.648769,,,,,,,
,,,,,,,,,,,,,,,,6.246847,-75.569313,1494.912266,-1.000000,-1.000000,1527538277.685743,
1527538277.732971,0.165181,0.335224,1.985765,-1.439903,-1.902797,0.557215,0.155278,-0.328981,-0.931483,-0.118795,0.068788,0.097727,-13.106844,-22.742268,-7.459911,,,,,,,
,,,,,,,,,,,,,,,,6.246784,-75.569384,1495.098667,3.120000,129.726562,1527538278.672495,
1527538278.733407,-0.097150,0.249285,1.914359,0.281252,0.010638,0.006364,-0.093999,-0.246711,-0.964519,0.037679,-0.105294,0.044948,-26.031023,-16.729664,-6.829418,,,,,,,
,,,,,,,,,,,,,,,,6.246796,-75.569367,1495.098389,1.439725,-1.000000,1527538279.673221,
1527538279.733846,0.016304,0.293312,1.929469,0.006715,-0.034279,-0.053642,0.015607,-0.289124,-0.957164,-0.041135,0.072007,0.101284,-27.576204,-31.200291,-12.479778,,,,,,,
,,,,,,,,,,,,,,,,6.246845,-75.569366,1494.140381,3.379856,130.183995,1527538280.673305,
1527538280.734282,0.003423,0.316075,1.856971,0.044090,-0.056363,0.023193,0.003254,-0.310838,-0.950457,-0.032978,0.092821,0.055621,-36.393799,-26.994801,-5.807537,,,,,,,
,,,,,,,,,,,,,,,,6.246816,-75.569179,1491.293858,4.240000,118.828125,1527538281.680934,
1527538281.734750,0.019599,0.308084,1.802324,0.376756,0.051005,0.069507,0.018675,-0.303233,-0.952733,0.104967,0.071956,0.114034,-51.512756,-31.857319,-0.538860,,,,,,,
,,,,,,,,,,,,,,,,6.246785,-75.569168,1490.207432,4.120000,108.281250,1527538282.672416,
1527538282.735172,0.009461,0.285951,1.823228,0.113990,0.127479,0.064997,0.009077,-0.282070,-0.959351,0.027224,-0.005803,-0.095428,-53.844910,-32.754505,-1.499783,,,,,,,
,,,,,,,,,,,,,,,,6.246804,-75.569127,1489.364170,4.240000,108.984375,1527538283.686878,
1527538283.735623,-0.022585,0.276849,1.873013,-0.004828,-0.117842,0.012573,-0.021723,-0.273326,-0.961676,0.035502,0.024440,0.028296,-58.757156,-28.250141,-0.404140,,,,,,,
,,,,,,,,,,,,,,,,6.246847,-75.569016,1487.643467,4.400000,104.765625,1527538284.682752,
1527538284.736050,0.140843,0.296611,1.561812,0.069323,0.207784,1.233525,0.134248,-0.292280,-0.946863,-0.138108,0.592100,0.083734,-45.974762,-41.765644,5.022602,,,,,,,
,,,,,,,,,,,,,,,,6.246799,-75.568979,1487.245152,4.400000,106.523438,1527538285.668431,
1527538285.736471,0.257176,0.105480,1.734100,0.242148,-0.235579,0.254007,0.252936,-0.105284,-0.961737,-0.042701,0.042220,-0.037012,-50.004456,-40.402897,-12.420788,,,,,,,
,,,,,,,,,,,,,,,,6.246866,-75.569061,1487.053379,3.030000,115.664062,1527538286.673577,
1527538286.736906,0.227018,0.125441,1.778603,-0.048000,-0.161548,-0.053513,0.223305,-0.125112,-0.966686,0.020637,0.054540,-0.043843,-39.200272,-30.815998,-7.822445,,,,,,,
,,,,,,,,,,,,,,,,6.246873,-75.569004,1486.371494,3.030000,104.062500,1527538287.689943,
1527538287.737343,0.192155,0.150617,1.778451,0.114879,0.081615,0.025642,0.188812,-0.150048,-0.970482,0.017975,-0.101813,0.030953,-57.767548,-35.673420,-5.829617,,,,,,,
,,,,,,,,,,,,,,,,6.246842,-75.568947,1488.465733,3.390000,89.648438,1527538288.692364,
1527538288.737767,-0.918481,0.088075,2.548284,1.470301,-0.096313,0.574310,-0.791599,-0.087961,-0.604675,0.063984,0.168360,-0.354126,-43.378372,1.113674,41.186634,,,,,,,
,,,,,,,,,,,,,,,,6.246816,-75.568920,1487.998936,3.390000,125.507812,1527538289.682097,
1527538289.738219,-0.775091,0.476869,2.595923,-0.299922,0.014840,-0.051625,-0.621711,-0.459000,-0.634661,0.011558,0.043839,-0.027174,-51.023743,1.423321,37.190922,,,,,,,
,,,,,,,,,,,,,,,,6.246824,-75.568855,1486.715000,2.670000,126.914062,1527538290.669434,
1527538290.738650,-0.635281,0.330551,2.610275,-2.825651,2.924205,-1.790536,-0.561279,-0.324565,-0.761330,-0.195511,0.046549,0.333733,-45.111572,16.947628,26.763340,,,,,,,
,,,,,,,,,,,,,,,,6.246804,-75.568803,1486.440098,2.670000,140.976562,1527538291.669834,
1527538291.739071,0.206404,0.381742,1.285468,0.326581,0.140237,0.005034,0.190189,-0.372538,-0.908319,0.127102,-0.069601,0.020242,-44.759384,-48.295963,13.247761,,,,,,,
1527538292.739503,0.096641,0.457646,1.225608,0.085174,-0.546401,-0.186961,0.086561,-0.441838,-0.892909,-0.164061,0.016392,-0.143682,-25.534807,-45.315937,14.770649,,,,,,,
,,,,,,,,,,,,,,,,6.246819,-75.568601,1488.286655,2.560000,145.546875,1527538293.670324,
1527538293.739922,0.219308,0.395055,0.493707,0.039056,-0.227295,-0.174043,0.200797,-0.384859,-0.900868,-0.025565,0.010668,-0.078258,9.597334,-50.301548,15.712254,,,,,,,
,,,,,,,,,,,,,,,,6.246888,-75.568625,1487.670933,2.560000,98.437500,1527538294.670541,
1527538294.740335,0.125171,0.384105,0.570718,-0.028660,0.057459,-0.030151,0.115747,-0.374729,-0.919881,-0.011514,-0.013744,0.007374,8.781507,-49.101749,17.745960,,,,,,,
,,,,,,,,,,,,,,,,6.246823,-75.568625,1485.829014,2.560000,101.601562,1527538295.667777,
1527538295.740779,0.156622,0.551528,0.262066,1.208808,0.320416,-2.004808,0.132854,-0.523989,-0.841299,0.023914,0.049319,0.155889,21.136320,-41.994709,28.927250,,,,,,,
,,,,,,,,,,,,,,,,6.246814,-75.568598,1485.716709,2.420000,94.921875,1527538296.671253,
1527538296.741190,0.451459,0.264186,0.597783,0.415957,-0.142622,0.053954,0.421142,-0.261123,-0.868593,-0.039916,0.030182,-0.041533,5.959700,-46.542484,4.872120,,,,,,,
,,,,,,,,,,,,,,,,6.246836,-75.568585,1485.864048,2.170000,100.546875,1527538297.686205,
1527538297.741644,0.381451,0.248786,0.401687,0.101919,0.031749,-0.181799,0.360806,-0.246228,-0.899550,0.020176,0.014126,0.101088,12.668760,-59.604115,14.692509,,,,,,,
,,,,,,,,,,,,,,,,6.246762,-75.568541,1482.241489,2.650000,104.062500,1527538298.668117,
1527538298.742062,0.213306,0.131427,0.405755,-0.108880,0.155604,0.201559,0.209867,-0.131049,-0.968908,-0.069150,0.035224,-0.048609,20.104155,-59.080585,2.791752,,,,,,,
,,,,,,,,,,,,,,,,6.246759,-75.568529,1489.529819,2.300000,105.468750,1527538299.668878,
1527538299.742487,0.307493,0.443363,0.011865,3.872848,-0.601047,-3.142014,0.273406,-0.428980,-0.860944,0.067506,0.092020,0.044828,35.636642,-48.156513,23.560352,,,,,,,
,,,,,,,,,,,,,,,,6.246729,-75.568515,1487.191319,2.300000,135.703125,1527538300.668700,
1527538300.742932,0.393976,0.399809,0.119418,-0.350257,0.254558,0.030841,0.353589,-0.389242,-0.850567,0.039645,0.085180,-0.033985,32.199326,-55.279835,27.091602,,,,,,,
,,,,,,,,,,,,,,,,6.246700,-75.568440,1486.126377,2.300000,111.093750,1527538301.665841,
1527538301.743364,0.275306,0.382757,0.691804,0.084910,0.189166,0.044893,0.252171,-0.373479,-0.892705,-0.089054,0.122716,-0.006938,7.909788,-46.469959,5.908649,,,,,,,
,,,,,,,,,,,,,,,,6.246678,-75.568371,1486.818638,2.790000,98.437500,1527538302.665526,
1527538302.743829,0.241761,0.339691,0.851369,-0.489467,0.172886,0.171892,0.225732,-0.333196,-0.915437,-0.037958,-0.027858,0.036760,4.841978,-54.491520,5.160069,,,,,,,
,,,,,,,,,,,,,,,,6.246673,-75.568412,1486.188145,2.790000,92.460938,1527538303.669044,
1527538303.744267,0.232050,-0.004435,0.816912,1.157012,-1.297233,-1.159622,0.229971,0.004435,-0.973187,-0.029272,0.064000,-0.133945,10.886015,-50.363621,-12.721920,,,,,,,
,,,,,,,,,,,,,,,,6.246670,-75.568315,1487.593418,2.750000,86.132812,1527538304.680407,
1527538304.744674,0.056997,0.403716,1.045507,-0.282586,0.385895,-0.013802,0.052386,-0.392839,-0.918114,0.005750,0.072923,0.015801,3.729811,-52.990330,5.021610,,,,,,,
,,,,,,,,,,,,,,,,6.246717,-75.568354,1490.076450,2.750000,61.523438,1527538305.673272,
1527538305.745104,0.079759,0.339928,1.200430,0.056230,-0.000293,0.182555,0.075116,-0.333419,-0.939781,-0.037381,0.018539,-0.047386,2.599470,-53.812550,1.727467,,,,,,,
,,,,,,,,,,,,,,,,6.246723,-75.568332,1489.980503,2.800000,65.039062,1527538306.685442,
1527538306.745536,-0.004120,0.324253,1.252417,0.364134,-0.153881,-0.335090,-0.003905,-0.318601,-0.947881,0.036483,0.135190,-0.004619,9.627821,-64.698700,9.976048,,,,,,,
,,,,,,,,,,,,,,,,6.246707,-75.568284,1489.397861,2.800000,31.992188,1527538307.671253,
1527538307.745957,0.032375,0.311570,1.649038,0.151376,-0.033895,0.124087,0.030811,-0.306553,-0.951355,-0.010151,0.042241,0.013107,-11.615679,-40.749546,4.109623,,,,,,,
,,,,,,,,,,,,,,,,6.246754,-75.568306,1488.377110,2.710000,26.015625,1527538308.675987,
1527538308.746387,0.097123,0.354628,1.713583,-0.269793,-0.040863,-0.112703,0.090937,-0.347241,-0.933356,0.000830,-0.021792,-0.005715,-15.402239,-36.171223,5.047581,,,,,,,
,,,,,,,,,,,,,,,,6.246656,-75.568235,1483.026524,2.710000,46.406250,1527538309.668002,
1527538309.746816,0.213423,0.229247,1.918534,0.048836,-0.152672,-0.337477,0.206265,-0.227245,-0.951743,0.042484,0.016719,-0.080972,-21.735216,-31.735569,-3.596996,,,,,,,
,,,,,,,,,,,,,,,,6.246714,-75.568223,1482.565342,3.180000,15.820312,1527538310.667454,
1527538310.747256,0.179917,0.208936,1.890795,0.203197,-0.632817,-0.810945,0.175057,-0.207420,-0.962462,0.002724,0.017493,-0.008913,-20.928972,-33.911640,-3.083080,,,,,,,
1527538311.747672,0.230655,0.296827,1.987986,-0.003083,-0.038362,-0.043140,0.218618,-0.292487,-0.930944,-0.028524,0.020530,0.011831,-24.686373,-34.733295,-2.233837,,,,,,,
,,,,,,,,,,,,,,,,6.246703,-75.568150,1487.363194,2.310000,43.242188,1527538311.710831,
,,,,,,,,,,,,,,,,6.246747,-75.568085,1486.629429,2.310000,25.664062,1527538312.071317,
1527538312.748129,0.273861,0.350274,2.020331,0.072123,-0.172167,0.039215,0.254028,-0.343155,-0.904275,-0.119080,0.038940,0.080148,-23.591707,-29.633091,-4.853756,,,,,,,
,,,,,,,,,,,,,,,,6.246854,-75.568016,1487.735264,1.950000,9.492188,1527538313.032468,
1527538313.748535,0.149776,0.348500,2.025209,-0.077926,-0.006656,0.510485,0.140247,-0.341488,-0.929363,-0.057498,-0.042515,-0.084156,-25.531618,-36.983585,0.016453,,,,,,,
,,,,,,,,,,,,,,,,6.246863,-75.568100,1485.674595,1.740000,30.937500,1527538314.034805,
1527538314.748973,0.125050,0.367138,1.926083,0.067681,-0.141210,-0.156484,0.116413,-0.358946,-0.926069,0.085629,0.035902,0.049299,-22.696291,-38.413914,5.018040,,,,,,,
,,,,,,,,,,,,,,,,6.246847,-75.568029,1487.563145,1.230000,33.398438,1527538315.020926,
1527538315.749399,0.079914,0.372008,1.910425,0.005818,0.078144,-0.124435,0.074369,-0.363487,-0.928625,0.150470,-0.025109,0.036398,-26.865145,-60.466175,17.892078,,,,,,,
,,,,,,,,,,,,,,,,6.246860,-75.568034,1488.933994,1.650000,5.273438,1527538316.027184,
1527538316.749852,0.089089,0.383748,1.928319,-0.003043,-0.193901,0.100465,0.082500,-0.374398,-0.923589,0.163670,-0.050986,-0.039500,-31.799318,-75.690994,27.413563,,,,,,,
,,,,,,,,,,,,,,,,6.246882,-75.568030,1488.769566,2.050000,2.812500,1527538317.035294,
1527538317.750290,0.175038,0.347010,1.949337,-0.042645,-0.214211,0.269401,0.163765,-0.340088,-0.926023,0.018623,-0.075119,-0.002627,-34.909195,-71.409149,19.946033,,,,,,,
,,,,,,,,,,,,,,,,6.246910,-75.568024,1488.654209,2.050000,358.945312,1527538318.025236,
1527538318.750696,0.180413,0.377439,1.972475,-0.051682,-0.113516,-0.443705,0.166805,-0.368541,-0.914522,0.035435,0.102260,-0.081999,-23.952669,-36.386280,2.256901,,,,,,,
,,,,,,,,,,,,,,,,6.246932,-75.568020,1488.527988,2.150000,358.242188,1527538319.029565,
1527538319.751152,0.146826,0.462629,1.935227,0.091313,0.165432,0.205341,0.130920,-0.446302,-0.885252,-0.052566,-0.024050,0.121031,-19.346834,-32.864979,0.433460,,,,,,,
,,,,,,,,,,,,,,,,6.246968,-75.568003,1488.516392,2.670000,1.757812,1527538320.026304,
1527538320.751571,0.129600,0.448866,1.921853,0.001325,-0.199965,-0.031937,0.116435,-0.433944,-0.893383,0.002919,-0.023347,0.040737,-21.169039,-35.116230,6.590580,,,,,,,
,,,,,,,,,,,,,,,,6.247016,-75.567967,1489.487217,4.860000,4.921875,1527538321.032124,
1527538321.752039,0.126231,0.460573,1.879362,0.057077,-0.125393,0.047206,0.112777,-0.444462,-0.888669,0.044495,0.012898,0.037137,-30.513338,-73.896561,35.959049,,,,,,,
,,,,,,,,,,,,,,,,6.247065,-75.567853,1489.678989,5.310000,45.000000,1527538322.031902,
1527538322.752481,0.172244,0.402202,1.786495,0.148469,0.252896,0.314393,0.157717,-0.391445,-0.906583,-0.026308,0.047497,-0.061861,-21.683855,-76.528519,32.215656,,,,,,,
,,,,,,,,,,,,,,,,6.247110,-75.567834,1489.418369,5.220000,37.617188,1527538323.032093,
1527538323.752912,0.186803,0.379066,1.838012,-0.098867,0.182319,-0.186111,0.172534,-0.370053,-0.912847,0.138806,-0.034870,0.045690,-28.395037,-89.423386,35.380405,,,,,,,
,,,,,,,,,,,,,,,,6.247140,-75.567813,1490.334263,5.310000,34.453125,1527538324.032368,
1527538324.753350,0.197046,0.371598,1.871177,0.108402,0.211945,0.168232,0.182411,-0.363105,-0.913717,0.084892,-0.095940,0.070592,-24.656816,-48.164600,10.332386,,,,,,,
,,,,,,,,,,,,,,,,6.247165,-75.567762,1490.612339,5.310000,43.242188,1527538325.032710,
1527538325.753783,0.175686,0.379516,1.814618,-0.087819,-0.108971,-0.406161,0.162346,-0.370471,-0.914545,0.079948,0.012256,-0.038214,-20.689516,-66.098816,20.834766,,,,,,,
,,,,,,,,,,,,,,,,6.247210,-75.567724,1490.833286,5.420000,9.492188,1527538326.031614,
1527538326.754244,0.218218,0.343146,1.869751,0.041218,0.360819,0.563589,0.203869,-0.336451,-0.919367,-0.166989,0.062495,0.015559,-24.774309,-61.741566,14.499256,,,,,,,
,,,,,,,,,,,,,,,,6.247257,-75.567677,1491.026890,5.420000,40.781250,1527538327.027611,
1527538327.754699,0.249274,0.411994,1.828501,-0.411678,-0.170715,-0.249390,0.226057,-0.400437,-0.888001,-0.129225,0.068147,0.029282,-19.298143,-35.940205,0.800434,,,,,,,
,,,,,,,,,,,,,,,,6.247309,-75.567640,1490.230503,6.790000,39.023438,1527538328.019340,
1527538328.755110,0.248541,0.400561,1.862976,0.249051,0.527461,0.459247,0.226518,-0.389935,-0.892546,-0.050156,0.016461,0.110640,-18.153795,-33.839848,-2.202328,,,,,,,
,,,,,,,,,,,,,,,,6.247371,-75.567598,1489.457920,6.980000,40.078125,1527538329.021527,
1527538329.755547,0.214653,0.402699,1.908380,0.020843,-0.095645,0.010992,0.195969,-0.391903,-0.898891,-0.068940,-0.050876,0.074977,-17.017275,-23.938633,-6.910534,,,,,,,
,,,,,,,,,,,,,,,,6.247425,-75.567575,1490.653843,6.410000,37.968750,1527538330.031859,
1527538330.756010,0.177184,0.413609,1.931070,-0.121403,-0.215122,-0.190865,0.161395,-0.401917,-0.901339,-0.004947,-0.046097,0.030321,-15.292665,-15.388416,-10.801235,,,,,,,
,,,,,,,,,,,,,,,,6.247479,-75.567595,1491.002720,6.410000,40.078125,1527538331.029088,
1527538331.756463,0.158533,0.441357,1.826144,-0.104652,0.007119,0.057844,0.142741,-0.427167,-0.892833,-0.083415,0.050503,0.012568,-12.114473,-20.718113,-7.761806,,,,,,,
,,,,,,,,,,,,,,,,6.247529,-75.567520,1490.223423,5.820000,41.132812,1527538332.027723,
1527538332.756869,0.305368,0.329625,1.494393,-0.330965,0.037000,0.120588,0.284458,-0.323688,-0.902389,-0.103885,0.010059,-0.014084,-7.192659,-24.097492,-8.854702,,,,,,,
,,,,,,,,,,,,,,,,6.247579,-75.567487,1490.791172,5.690000,28.828125,1527538333.026891,
1527538333.757318,0.139972,0.494160,1.603336,-2.911166,-0.663945,1.674695,0.122825,-0.474292,-0.871755,-0.159568,0.245120,0.084310,-6.610872,-25.900944,-3.088284,,,,,,,
,,,,,,,,,,,,,,,,6.247616,-75.567468,1491.397495,5.460000,28.476562,1527538334.021960,
1527538334.757782,0.160642,0.092303,1.774440,0.323453,-0.604991,-0.224810,0.159271,-0.092172,-0.982922,-0.026215,-0.083075,-0.014133,-10.923265,-22.140995,-14.373699,,,,,,,
,,,,,,,,,,,,,,,,6.247663,-75.567443,1490.995640,5.200000,32.343750,1527538335.021959,
1527538335.758216,0.177216,0.450319,1.973650,0.274052,0.103498,0.298647,0.158715,-0.435252,-0.886207,-0.060326,-0.007848,0.024146,-15.126314,-22.065479,-6.994091,,,,,,,
,,,,,,,,,,,,,,,,6.247704,-75.567410,1491.168736,5.200000,31.992188,1527538336.019060,
1527538336.758654,0.225663,0.355661,2.041033,-0.880073,1.699698,-0.016217,0.209749,-0.348210,-0.913648,-0.091387,0.072285,0.073072,-18.678026,-7.958546,-13.758968,,,,,,,
,,,,,,,,,,,,,,,,6.247745,-75.567395,1491.813389,5.160000,30.585938,1527538337.022430,
1527538337.759092,1.651828,0.090397,2.246957,0.159698,0.252729,0.082805,0.992634,-0.090274,0.080611,0.036297,0.060321,0.011537,11.733702,-13.083668,-24.334652,,,,,,,
,,,,,,,,,,,,,,,,6.247801,-75.567395,1491.503819,4.880000,21.093750,1527538338.018665,
1527538338.759550,1.836284,0.247680,2.303217,0.235919,-0.594039,-0.218467,0.935501,-0.245155,0.254369,-0.015503,-0.022407,-0.040318,15.258360,-21.937290,-24.156460,,,,,,,
,,,,,,,,,,,,,,,,6.247812,-75.567361,1491.687046,3.600000,34.453125,1527538339.037498,
1527538339.760020,1.331653,0.149978,1.847107,-0.231723,-0.013910,0.021620,0.960628,-0.149416,-0.234210,-0.013194,0.049654,0.006640,4.057615,-24.480213,-15.909405,,,,,,,
,,,,,,,,,,,,,,,,6.247864,-75.567380,1491.530918,3.910000,22.148438,1527538340.049988,
1527538340.760490,1.026936,0.744826,1.959789,-0.935778,1.776481,1.082587,0.629124,-0.677844,-0.380425,-0.205510,0.384906,0.245843,-18.589510,-23.934330,-12.374508,,,,,,,
,,,,,,,,,,,,,,,,6.247858,-75.567387,1491.442173,3.600000,16.875000,1527538341.048233,
1527538341.760909,1.400215,0.114907,2.556730,-0.068816,0.147963,0.213185,0.978986,-0.114654,-0.168636,0.006487,0.089737,0.007198,5.434263,-13.076862,-25.340542,,,,,,,
,,,,,,,,,,,,,,,,6.247894,-75.567382,1491.576084,2.820000,14.414062,1527538342.026633,
1527538342.761377,1.344822,0.404320,2.577390,0.788753,-0.236415,1.408332,0.895996,-0.393393,-0.205990,-0.124664,0.208121,-0.084675,0.014860,-15.321766,-24.708218,,,,,,,
,,,,,,,,,,,,,,,,6.247897,-75.567354,1491.890659,2.850000,29.179688,1527538343.040784,
1527538343.761844,1.447556,0.268494,2.361250,0.079689,-0.365760,0.045205,0.956859,-0.265279,-0.118524,-0.119563,0.022512,-0.051871,3.342329,-20.801044,-22.795208,,,,,,,
,,,,,,,,,,,,,,,,6.247960,-75.567344,1493.852451,3.810000,11.601562,1527538344.050358,
1527538344.762271,1.335033,0.220008,2.212144,0.036939,0.034599,-0.061676,0.948898,-0.218238,-0.227955,0.038193,-0.041680,-0.032513,1.585524,-24.326130,-19.116726,,,,,,,
,,,,,,,,,,,,,,,,6.248018,-75.567341,1495.000034,3.810000,6.328125,1527538345.048705,
1527538345.762749,1.303813,0.250509,2.090457,0.219007,0.122475,-0.210225,0.934462,-0.247897,-0.255588,-0.008468,-0.023145,-0.034527,-2.026537,-25.524403,-15.344433,,,,,,,
,,,,,,,,,,,,,,,,6.248098,-75.567342,1494.515293,4.750000,13.359375,1527538346.048015,
1527538346.763198,1.227254,0.241012,1.906078,0.158250,-0.044111,0.017389,0.914352,-0.238686,-0.327089,-0.039458,-0.006401,-0.037062,-4.604845,-28.747730,-13.534451,,,,,,,
,,,,,,,,,,,,,,,,6.248154,-75.567311,1494.518833,4.520000,20.742188,1527538347.041459,
1527538347.763633,1.216038,0.253486,1.747302,0.073890,-0.046958,0.023867,0.907763,-0.250780,-0.336263,0.017835,-0.040418,-0.083521,-3.854219,-28.524754,-10.989147,,,,,,,
,,,,,,,,,,,,,,,,6.248138,-75.567259,1494.917759,4.520000,62.226562,1527538348.044560,
1527538348.764103,1.229134,0.234769,1.522031,0.109923,-0.042620,0.072805,0.916350,-0.232618,-0.325862,-0.012160,-0.036318,-0.001485,-1.746096,-36.178684,-7.348034,,,,,,,
,,,,,,,,,,,,,,,,6.248138,-75.567237,1494.351231,3.040000,76.640625,1527538349.038738,
1527538349.764552,1.229794,0.268071,1.334167,0.089261,-0.094998,-0.001277,0.908755,-0.264872,-0.322486,-0.078494,-0.044180,-0.034723,-2.420519,-35.805607,-2.167385,,,,,,,
,,,,,,,,,,,,,,,,6.248136,-75.567223,1493.854649,2.770000,84.023438,1527538350.032791,
1527538350.765030,1.206953,0.268420,1.155652,0.009665,-0.220319,0.176603,0.901066,-0.265208,-0.343123,-0.024693,-0.078466,-0.069398,-8.668612,-47.349308,-2.227505,,,,,,,
,,,,,,,,,,,,,,,,6.248142,-75.567203,1494.215122,2.630000,85.781250,1527538351.028713,
1527538351.765477,1.226692,0.241538,0.896747,-0.379763,0.013756,0.353353,0.914046,-0.239196,-0.327559,-0.017226,-0.031281,-0.018800,0.686201,-40.462406,5.224232,,,,,,,
,,,,,,,,,,,,,,,,6.248142,-75.567153,1494.548374,4.260000,87.890625,1527538352.018409,
1527538352.765950,1.197543,0.273967,1.010442,-0.287612,-0.053455,0.158157,0.896415,-0.270552,-0.351046,0.051155,-0.031541,-0.182478,5.980467,-35.441105,2.049717,,,,,,,
,,,,,,,,,,,,,,,,6.248147,-75.567118,1494.665440,4.260000,84.726562,1527538353.030989,
1527538353.766406,1.253449,0.330308,0.719427,0.213035,-0.086169,-0.049563,0.898705,-0.324334,-0.295178,0.002860,-0.012976,0.105664,-16.245134,-73.297684,9.685658,,,,,,,
,,,,,,,,,,,,,,,,6.248119,-75.567098,1496.122959,3.950000,98.789062,1527538354.020217,
1527538354.766873,1.273439,0.324852,0.735841,-0.011099,-0.070531,-0.073257,0.906104,-0.319169,-0.277670,-0.059318,0.045350,0.102789,-22.418535,-85.139267,5.199268,,,,,,,
,,,,,,,,,,,,,,,,6.248120,-75.567057,1495.570469,3.950000,93.164062,1527538355.021746,
1527538355.767316,1.176654,0.290897,0.829721,-0.066760,0.007693,-0.425255,0.884531,-0.286812,-0.367881,-0.013620,0.051705,-0.052147,-2.645601,-52.984425,5.966251,,,,,,,
,,,,,,,,,,,,,,,,6.248138,-75.567049,1495.450840,4.840000,332.929688,1527538356.020847,
1527538356.767742,1.148613,0.429481,0.820004,0.255189,-0.088999,0.051918,0.829350,-0.416399,-0.372539,0.031582,0.002718,0.051830,-16.212969,-60.697666,9.566944,,,,,,,
,,,,,,,,,,,,,,,,6.248154,-75.567035,1495.391148,4.890000,336.093750,1527538357.020073,
1527538357.768215,1.113412,0.469605,0.853146,-0.066809,-0.148107,0.095488,0.800082,-0.452534,-0.393796,0.010190,0.030568,-0.015200,-17.482302,-60.095829,8.452335,,,,,,,
,,,,,,,,,,,,,,,,6.248098,-75.566930,1495.173008,4.890000,117.773438,1527538358.016995,
1527538358.768692,1.048860,0.448923,0.860256,0.095735,-0.097441,-0.501083,0.780959,-0.433995,-0.449158,0.005875,0.012990,-0.081177,-4.484835,-48.633808,8.390003,,,,,,,
,,,,,,,,,,,,,,,,6.248094,-75.566876,1494.784092,4.890000,113.554688,1527538359.016805,
1527538359.769132,1.547003,0.767689,0.003105,2.429064,0.473775,0.567258,0.719306,-0.694474,-0.017118,0.005685,0.413758,0.429670,-16.524065,-33.489719,44.287144,,,,,,,
,,,,,,,,,,,,,,,,6.248077,-75.566831,1495.523838,4.630000,114.609375,1527538360.023188,
1527538360.769575,1.236417,0.459745,0.663060,-0.110469,0.025702,-0.047084,0.846527,-0.443720,-0.294105,0.000946,0.066431,-0.028847,-5.922197,-49.611423,16.497623,,,,,,,
,,,,,,,,,,,,,,,,6.248062,-75.566793,1495.331577,4.630000,109.687500,1527538361.024228,
1527538361.770045,1.231632,0.493715,0.670983,0.238164,0.105962,0.120420,0.830411,-0.473900,-0.292966,0.009295,0.082375,-0.004214,-1.383638,-45.115604,15.802082,,,,,,,
,,,,,,,,,,,,,,,,6.248035,-75.566764,1495.671787,4.490000,113.203125,1527538362.024264,
1527538362.770483,1.210372,0.504283,0.699809,-0.112177,-0.009441,-0.067310,0.819264,-0.483180,-0.308770,-0.007466,0.058665,-0.021735,1.142759,-39.192097,13.699207,,,,,,,
,,,,,,,,,,,,,,,,6.247990,-75.566744,1495.606968,3.810000,132.539062,1527538363.020670,
1527538363.770932,1.234854,0.495170,0.709734,-0.010671,-0.044121,-0.124549,0.830701,-0.475182,-0.290062,-0.094144,0.060692,-0.047111,-0.901354,-41.365696,14.983082,,,,,,,
,,,,,,,,,,,,,,,,6.247990,-75.566730,1495.424595,3.660000,324.843750,1527538364.023585,
1527538364.771341,1.232963,0.465792,0.770706,-0.088060,0.010359,-0.131936,0.842962,-0.449131,-0.296134,-0.040731,0.052936,-0.139093,1.279829,-40.766788,12.794315,,,,,,,
,,,,,,,,,,,,,,,,6.248006,-75.566728,1495.693760,3.660000,319.921875,1527538365.025423,
1527538365.771811,1.207424,0.449880,0.713479,0.079582,-0.084199,0.007057,0.841698,-0.434857,-0.320062,-0.011269,-0.034152,-0.112616,-2.976183,-47.213718,15.207996,,,,,,,
,,,,,,,,,,,,,,,,6.248007,-75.566719,1495.994297,2.380000,325.546875,1527538366.020548,
1527538366.772255,1.276590,0.524465,0.553806,-0.097859,-0.196314,-0.025802,0.828398,-0.500750,-0.251004,-0.039061,-0.008054,0.129483,-12.954790,-55.908451,24.631107,,,,,,,
,,,,,,,,,,,,,,,,6.248007,-75.566711,1495.695347,1.250000,330.468750,1527538367.019933,
1527538367.772660,1.267536,0.957761,1.238646,-0.178616,-0.029408,-0.301749,0.549096,-0.817905,-0.171819,-0.178246,-0.103039,0.211812,-67.285797,-53.133732,-16.156643,,,,,,,
,,,,,,,,,,,,,,,,6.248007,-75.566699,1495.655552,1.560000,312.539062,1527538368.025598,
1527538368.773099,1.275217,0.864710,1.361937,0.258523,-0.370023,-0.276172,0.620721,-0.760907,-0.189009,-0.083840,-0.011050,0.142744,-76.259995,-60.312931,-39.811779,,,,,,,
,,,,,,,,,,,,,,,,6.248006,-75.566689,1496.182041,2.500000,317.109375,1527538369.023693,
1527538369.773539,0.369768,0.536513,1.162894,0.161864,0.301236,-0.238774,0.310621,-0.511142,-0.801404,0.104296,-0.071393,0.123517,-77.886627,-97.472076,31.731724,,,,,,,
,,,,,,,,,,,,,,,,6.248008,-75.566670,1496.325840,2.500000,343.125000,1527538370.019929,
1527538370.773958,0.435184,0.576160,1.068940,-0.201928,-0.061048,-0.060759,0.353518,-0.544808,-0.760400,0.049970,-0.070259,0.105585,-84.057129,-108.195267,40.448109,,,,,,,
,,,,,,,,,,,,,,,,6.248009,-75.566645,1496.294590,2.800000,346.992188,1527538371.023562,
1527538371.774410,0.453775,0.533429,1.020440,-0.070965,-0.013519,0.197653,0.377459,-0.508489,-0.773926,-0.034228,-0.069499,-0.029022,-48.512085,-83.099075,26.987034,,,,,,,
,,,,,,,,,,,,,,,,6.248003,-75.566615,1496.456089,3.690000,348.750000,1527538372.027033,
1527538372.774817,0.451104,0.506423,0.976983,0.014078,-0.218819,0.012298,0.381240,-0.485052,-0.787006,-0.085295,-0.028879,-0.129650,-8.673204,-47.130756,10.673084,,,,,,,
,,,,,,,,,,,,,,,,6.247900,-75.566483,1496.352451,5.280000,111.796875,1527538373.023207,
1527538373.775249,0.468914,0.503980,0.895099,-0.210980,-0.107322,0.244715,0.395730,-0.482914,-0.781147,-0.093224,0.035344,-0.081890,0.792692,-45.339558,9.336292,,,,,,,
,,,,,,,,,,,,,,,,6.247851,-75.566418,1496.276035,5.280000,112.851562,1527538374.022496,
1527538374.775692,0.438752,0.508646,0.889615,0.049866,-0.104590,-0.079015,0.371031,-0.486995,-0.790677,-0.053694,-0.018590,-0.049457,0.426268,-44.289524,10.016483,,,,,,,
,,,,,,,,,,,,,,,,6.247832,-75.566379,1496.279087,5.750000,113.554688,1527538375.033471,
1527538375.776073,0.482182,0.421603,0.831578,-0.123446,-0.394286,0.531865,0.423108,-0.409224,-0.808402,-0.094433,-0.034593,0.035468,-9.629747,-62.356922,14.916706,,,,,,,
,,,,,,,,,,,,,,,,6.247833,-75.566297,1496.137241,5.310000,97.734375,1527538376.053769,
1527538376.776530,0.452247,0.355389,0.586799,-0.394965,-0.183938,-0.357838,0.409680,-0.347955,-0.843260,0.074603,-0.027824,-0.012651,-5.739229,-106.098495,40.280125,,,,,,,
,,,,,,,,,,,,,,,,6.247805,-75.566241,1495.552036,5.740000,110.390625,1527538377.051852,
1527538377.776934,0.474674,0.358142,0.707284,-0.045316,0.173661,0.014020,0.428048,-0.350535,-0.833006,-0.025140,0.017100,0.038786,-10.264727,-83.437073,26.493458,,,,,,,
,,,,,,,,,,,,,,,,6.247792,-75.566188,1495.199863,5.740000,109.335938,1527538378.051637,
1527538378.777338,0.419006,0.383391,0.780957,0.167842,-0.282785,-0.132225,0.377316,-0.374067,-0.847175,0.039188,-0.030581,-0.129632,-17.308840,-82.680573,27.594654,,,,,,,
,,,,,,,,,,,,,,,,6.247774,-75.566118,1495.006138,6.050000,108.632812,1527538379.051344,
1527538379.777774,0.486984,0.379100,0.703452,0.009014,0.114571,0.794355,0.434736,-0.370085,-0.821000,-0.079649,0.027265,0.013825,-3.893724,-75.266891,23.394291,,,,,,,
,,,,,,,,,,,,,,,,6.247745,-75.566065,1496.021519,6.670000,115.664062,1527538380.031601,
1527538380.778208,0.414990,0.373983,0.801121,-0.048385,-0.403403,-0.191663,0.375313,-0.365326,-0.851866,-0.044579,-0.002243,-0.145448,0.859892,-54.420231,20.563114,,,,,,,
,,,,,,,,,,,,,,,,6.247663,-75.566001,1495.932774,7.240000,120.585938,1527538381.021284,
1527538381.778610,0.452246,0.322057,0.588326,-0.249381,0.114311,0.319020,0.414520,-0.316518,-0.853223,0.076127,0.042593,-0.076556,12.403898,-55.478779,14.554661,,,,,,,
,,,,,,,,,,,,,,,,6.247611,-75.565945,1495.638340,7.240000,120.234375,1527538382.023229,
1527538382.779025,0.419281,0.347454,0.762506,-0.310685,0.182485,-0.353592,0.382776,-0.340505,-0.858801,0.037680,0.000844,0.003729,10.312193,-45.875019,11.218311,,,,,,,
,,,,,,,,,,,,,,,,6.247565,-75.565882,1495.629795,7.240000,119.882812,1527538383.023526,
1527538383.779430,0.395285,0.320403,0.664409,-0.046974,-0.026688,-0.319821,0.365474,-0.314949,-0.875920,0.049641,-0.016746,-0.101268,35.419281,-90.538406,37.780918,,,,,,,
,,,,,,,,,,,,,,,,6.247523,-75.565850,1496.022739,7.180000,123.750000,1527538384.032749,
1527538384.779867,0.388774,0.303595,0.749077,0.019198,-0.185955,-0.014340,0.361719,-0.298953,-0.883055,-0.009226,0.064151,-0.041246,14.217665,-45.501621,6.616917,,,,,,,
,,,,,,,,,,,,,,,,6.247494,-75.565825,1496.391026,6.440000,124.101562,1527538385.025390,
1527538385.780277,0.398093,0.323686,0.765837,0.568503,0.174644,0.258774,0.367529,-0.318063,-0.873932,-0.106390,0.044031,0.035873,20.087904,-26.077366,-3.650616,,,,,,,
,,,,,,,,,,,,,,,,6.247470,-75.565736,1496.343784,7.460000,113.203125,1527538386.022632,
1527538386.780690,0.365708,0.386512,0.650388,0.293754,-0.076276,-0.193808,0.331229,-0.376960,-0.864978,-0.041526,0.039314,0.015750,22.390715,-28.332691,2.402622,,,,,,,
,,,,,,,,,,,,,,,,6.247475,-75.565752,1496.716709,5.590000,99.140625,1527538387.018356,
1527538387.781101,0.359965,0.342335,0.626877,0.159546,0.005865,-0.018924,0.331802,-0.335688,-0.881601,-0.070968,0.020670,-0.153967,17.875410,-29.756382,8.805668,,,,,,,
,,,,,,,,,,,,,,,,6.247431,-75.565690,1496.828403,6.160000,110.390625,1527538388.016142,
1527538388.781505,0.323126,0.307499,0.590014,-0.027075,-0.366267,-0.186976,0.302638,-0.302676,-0.903768,-0.004802,0.007617,-0.012400,20.435591,-37.706196,3.292881,,,,,,,
,,,,,,,,,,,,,,,,6.247450,-75.565715,1498.575718,3.440000,122.695312,1527538389.021181,
1527538389.781924,1.240016,0.283853,0.901018,-2.457115,2.678989,1.165720,0.907941,-0.280057,-0.311784,0.018298,0.088574,-0.025374,7.003401,-29.519535,6.857365,,,,,,,
,,,,,,,,,,,,,,,,6.247437,-75.565720,1499.416416,2.880000,139.570312,1527538390.018507,
1527538390.782363,0.834857,-0.633761,0.939051,1.051852,0.994169,-2.603460,0.597264,0.592179,-0.540924,-0.253392,0.244277,-0.180008,21.624708,-30.281376,1.278111,,,,,,,
,,,,,,,,,,,,,,,,6.247419,-75.565710,1499.290806,2.880000,142.734375,1527538391.025473,
1527538391.782801,0.813245,-0.494744,1.521493,-0.150891,-0.449078,0.390328,0.639404,0.474806,-0.604750,-0.225372,-0.163008,0.183821,6.279051,-36.781437,-17.905712,,,,,,,
,,,,,,,,,,,,,,,,6.247403,-75.565681,1499.374302,2.880000,125.507812,1527538392.017462,
1527538392.783180,0.686091,-0.692942,0.999099,0.248432,0.385090,-0.857568,0.487409,0.638804,-0.595283,-0.119795,0.136419,0.146019,25.223204,-30.955753,-7.148754,,,,,,,
,,,,,,,,,,,,,,,,6.247385,-75.565676,1499.573154,2.960000,120.937500,1527538393.025823,
1527538393.783627,0.860278,-0.461270,1.349696,-0.163950,-0.165638,1.392388,0.678801,0.445086,-0.584061,-0.191543,0.071027,-0.013321,8.386000,-35.661121,-12.742657,,,,,,,
,,,,,,,,,,,,,,,,6.247374,-75.565669,1499.438511,2.220000,137.460938,1527538394.020277,
1527538394.784042,0.540843,0.262689,1.524330,0.232784,0.135922,-0.530320,0.497197,-0.259678,-0.827866,-0.386693,-0.289165,-0.242050,-14.869280,-35.866398,-5.680386,,,,,,,
,,,,,,,,,,,,,,,,6.247366,-75.565655,1499.228794,2.220000,124.453125,1527538395.019596,
1527538395.784458,0.686848,0.269122,1.295666,-0.257722,-0.311647,0.586038,0.611278,-0.265885,-0.745415,-0.147289,0.224549,0.102913,-9.422792,-38.949146,-1.076229,,,,,,,
,,,,,,,,,,,,,,,,6.247359,-75.565647,1499.615391,1.920000,138.515625,1527538396.036392,
1527538396.784883,0.731310,0.288170,2.011355,-0.416482,-0.967662,0.416287,0.640307,-0.284199,-0.713609,0.019132,-0.126721,-0.000456,-29.790575,-27.444370,-19.879894,,,,,,,
,,,,,,,,,,,,,,,,6.247348,-75.565639,1499.710484,1.340000,148.359375,1527538397.043513,
1527538397.785285,0.791399,-0.369427,1.831461,-0.032703,-0.006133,-0.665687,0.663347,0.361081,-0.655433,0.063506,-0.059048,0.036521,-13.442598,-27.983158,-25.020672,,,,,,,
,,,,,,,,,,,,,,,,6.247333,-75.565629,1499.166294,1.340000,150.820312,1527538398.044483,
1527538398.785704,0.597208,-0.447704,1.921003,0.144425,0.507560,-0.027137,0.506914,0.432897,-0.745412,0.017622,-0.055654,-0.026027,-21.463076,-27.227039,-21.212643,,,,,,,
,,,,,,,,,,,,,,,,6.247329,-75.565623,1499.335484,1.340000,159.609375,1527538399.032899,
1527538399.786121,0.749586,-0.459890,1.901976,-0.065887,-0.035714,-0.000840,0.610546,0.443850,-0.655920,0.008931,0.011823,0.032003,-18.616488,-27.976902,-27.159435,,,,,,,
,,,,,,,,,,,,,,,,6.247325,-75.565620,1499.180332,0.830000,171.914062,1527538400.029317,
1527538400.786520,0.758697,-0.468703,1.849101,0.058645,-0.066827,0.040754,0.613782,0.451729,-0.647466,-0.018811,-0.004738,0.025625,-21.349749,-32.097416,-30.675610,,,,,,,
,,,,,,,,,,,,,,,,6.247313,-75.565612,1497.995274,0.830000,179.296875,1527538401.025008,
1527538401.786958,0.756956,-0.509013,1.847518,0.106991,0.152467,-0.069792,0.599655,0.487315,-0.634773,0.045227,0.011174,-0.094002,-25.567659,-34.416416,-34.251873,,,,,,,
,,,,,,,,,,,,,,,,6.247325,-75.565560,1497.436436,0.830000,169.804688,1527538402.025336,
1527538402.787396,0.744040,-0.546780,1.847178,0.007034,-0.009513,-0.016230,0.578522,0.519939,-0.628470,-0.008042,-0.000545,0.022757,-27.601900,-35.613453,-36.115627,,,,,,,
,,,,,,,,,,,,,,,,6.247321,-75.565536,1497.290684,0.900000,110.390625,1527538403.016369,
1527538403.787802,0.741215,-0.562708,1.851347,-0.039536,-0.023221,-0.030154,0.571080,0.533479,-0.623913,-0.005940,-0.023103,0.014920,-29.408297,-36.436039,-37.305050,,,,,,,
,,,,,,,,,,,,,,,,6.247290,-75.565536,1498.391270,0.900000,161.367188,1527538404.021139,
1527538404.788234,0.751520,-0.561254,1.868656,-0.015784,0.090238,-0.068350,0.578008,0.532249,-0.618561,-0.020131,0.029153,0.107621,-31.429949,-36.133244,-38.865139,,,,,,,
,,,,,,,,,,,,,,,,6.247266,-75.565537,1498.047520,0.390000,222.187500,1527538405.022012,
1527538405.788641,0.743895,-0.581708,1.836088,0.030186,0.026421,-0.041400,0.565783,0.549452,-0.614809,0.018293,-0.003614,0.037432,-22.107424,-33.145420,-33.147930,,,,,,,
,,,,,,,,,,,,,,,,6.247246,-75.565533,1497.829624,0.330000,222.187500,1527538406.019740,
1527538406.789040,0.597162,-0.457819,1.757090,1.415011,-1.001312,0.202713,0.504392,0.441993,-0.741775,0.123737,-0.014975,-0.095108,-13.227480,-28.885578,-20.599438,,,,,,,
,,,,,,,,,,,,,,,,6.247241,-75.565531,1497.741123,0.160000,222.187500,1527538407.017075,
1527538407.789474,-0.219212,-0.255601,1.126956,0.043856,-0.843599,0.719941,-0.210396,0.252827,-0.944358,0.145531,-0.128285,-0.032678,9.993361,-40.167072,-4.065182,,,,,,,
,,,,,,,,,,,,,,,,6.247241,-75.565531,1497.625034,0.000000,222.187500,1527538408.018160,
1527538408.789881,-0.365658,-0.023607,1.950327,-0.697001,0.782527,0.330720,-0.357465,0.023604,-0.933628,-0.315860,0.005128,0.084019,-15.231890,-33.176502,15.253880,,,,,,,
,,,,,,,,,,,,,,,,6.247241,-75.565531,1497.486362,0.000000,222.187500,1527538409.020582,
1527538409.790304,-0.704151,0.111704,1.451145,-4.438661,-0.761814,-1.536434,-0.643352,-0.111472,-0.757411,0.095104,0.231040,0.317027,-12.038347,-37.449848,5.545841,,,,,,,
,,,,,,,,,,,,,,,,6.247241,-75.565531,1497.359531,0.000000,222.187500,1527538410.022439,
1527538410.790711,-1.082126,-0.217685,-0.098689,-0.201971,0.703310,0.170010,-0.862120,0.215970,-0.458373,0.094282,-0.093365,0.510696,16.243986,-12.706120,-38.465282,,,,,,,
,,,,,,,,,,,,,,,,6.247241,-75.565531,1497.507603,0.000000,222.187500,1527538411.016973,
1527538411.791146,-1.104401,-0.378589,-0.233533,-0.137892,0.005584,-0.094585,-0.829945,0.369610,-0.417827,-0.009578,-0.020443,0.038844,20.497725,-6.484501,-40.204510,,,,,,,
,,,,,,,,,,,,,,,,6.247241,-75.565531,1497.620152,0.000000,222.187500,1527538412.020281,
1527538412.791582,-1.075959,-0.371060,-0.297082,-0.097543,0.224551,-0.060033,-0.820153,0.362604,-0.442569,0.023094,0.065085,0.037937,21.874266,-3.261738,-38.481075,,,,,,,
,,,,,,,,,,,,,,,,6.247241,-75.565531,1497.699253,0.000000,222.187500,1527538413.049777,
1527538413.791958,-0.945327,-0.466934,-0.257899,-0.070895,-0.216592,0.170499,-0.723906,0.450151,-0.522804,-0.028490,-0.024461,-0.003807,27.263578,-4.467564,-37.621822,,,,,,,
,,,,,,,,,,,,,,,,6.247241,-75.565531,1497.512974,0.000000,222.187500,1527538414.057127,
1527538414.792358,-1.048495,-0.523066,-0.505784,-0.479819,0.218360,-0.109972,-0.750792,0.499539,-0.432172,0.041731,0.043979,0.033201,24.054350,6.557705,-31.721798,,,,,,,
,,,,,,,,,,,,,,,,6.247241,-75.565531,1497.751987,0.000000,222.187500,1527538415.040655,
1527538415.792796,-0.962930,-0.585975,-0.213404,0.661989,0.703606,0.257429,-0.683926,0.553012,-0.475840,0.074856,0.009458,-0.057440,21.357222,-1.989079,-32.774288,,,,,,,
,,,,,,,,,,,,,,,,6.247241,-75.565531,1497.524693,0.000000,222.187500,1527538416.045117,
1527538416.793206,-0.833902,-0.736506,0.264553,0.330706,-0.100762,0.479159,-0.548621,0.671704,-0.497824,0.094138,0.251224,0.149192,13.425032,-17.729542,-35.983105,,,,,,,
,,,,,,,,,,,,,,,,6.247241,-75.565531,1497.480015,0.000000,222.187500,1527538417.034751,
1527538417.793644,1.005536,-0.835609,1.583882,0.891755,2.276563,0.192360,0.566394,0.741705,-0.359265,-0.215778,-0.089941,0.046979,18.095152,-24.630436,-43.533062,,,,,,,
,,,,,,,,,,,,,,,,6.247241,-75.565531,1497.514439,0.000000,222.187500,1527538418.035492,
1527538418.794044,1.542955,-0.725816,1.725597,0.469071,0.985823,-1.524755,0.747668,0.663746,-0.020822,-0.148929,0.117321,0.002786,34.255157,-19.926563,-33.584423,,,,,,,
,,,,,,,,,,,,,,,,6.247241,-75.565531,1497.796543,0.000000,222.187500,1527538419.040717,
1527538419.794445,0.449451,-1.397714,0.614398,0.629242,0.283984,0.273854,0.074824,0.985059,-0.155114,-0.553019,-0.280057,-0.017905,38.863358,1.817196,-30.337307,,,,,,,
,,,,,,,,,,,,,,,,6.247241,-75.565531,1498.050449,0.000000,222.187500,1527538420.041554,
1527538420.794852,-0.004881,-1.328898,0.184112,-0.054379,-0.069686,0.004914,-0.001169,0.970885,-0.239537,0.021372,-0.014174,-0.004909,39.109665,-4.483189,-30.054790,,,,,,,
,,,,,,,,,,,,,,,,6.247241,-75.565531,1498.280918,0.000000,222.187500,1527538421.026944,
1527538421.795258,-0.036464,-1.347521,0.195082,0.103124,-0.085150,0.009887,-0.008072,0.975177,-0.221269,-0.026825,0.000882,-0.001997,36.793152,-3.431324,-29.135937,,,,,,,
,,,,,,,,,,,,,,,,6.247241,-75.565531,1498.280918,0.000000,222.187500,1527538422.016070,
1527538422.795656,0.052801,-1.348146,0.216872,0.024644,0.092482,-0.022465,0.011653,0.975316,-0.220492,-0.089427,0.023555,-0.013044,38.072144,-2.833683,-26.968395,,,,,,,
,,,,,,,,,,,,,,,,6.247241,-75.565531,1498.412510,0.000000,195.468750,1527538423.013183,
1527538423.796091,0.033359,-1.345058,0.177682,-0.000884,0.004477,0.004926,0.007465,0.974629,-0.223688,-0.000125,-0.007725,0.008417,38.363739,-3.809086,-26.747875,,,,,,,
,,,,,,,,,,,,,,,,6.247241,-75.565531,1498.452305,0.000000,189.843750,1527538424.014778,
1527538424.796484,0.071883,-1.344597,0.170699,-0.007078,0.054442,0.003559,0.016108,0.974526,-0.223697,0.002813,-0.011788,0.013400,40.091431,-3.510670,-27.059231,,,,,,,
,,,,,,,,,,,,,,,,6.247241,-75.565531,1498.349644,0.000000,331.171875,1527538425.015850,
1527538425.796920,0.059003,-1.346054,0.159127,-0.011058,0.022470,-0.012486,0.013141,0.974852,-0.222466,-0.005649,-0.007627,0.020882,40.463730,-3.885548,-28.037777,,,,,,,
,,,,,,,,,,,,,,,,6.247234,-75.565539,1498.348057,0.430000,333.281250,1527538426.021672,
1527538426.797329,0.051489,-1.347783,0.155410,-0.000741,-0.017953,-0.005724,0.011383,0.975235,-0.220871,0.006836,0.000442,0.011216,40.909729,-4.410542,-28.942211,,,,,,,
,,,,,,,,,,,,,,,,6.247237,-75.565542,1498.449253,0.430000,311.132812,1527538427.020944,
1527538427.797753,0.043903,-1.348453,0.150571,0.001403,0.006478,-0.003614,0.009678,0.975383,-0.220303,0.012417,-0.003627,0.011501,43.003281,-5.311436,-31.359112,,,,,,,
,,,,,,,,,,,,,,,,6.247246,-75.565544,1498.446568,0.390000,311.132812,1527538428.013833,
1527538428.798191,0.042038,-1.348058,0.149748,0.001225,-0.003104,0.000659,0.009283,0.975296,-0.220700,0.007944,-0.006943,0.010816,44.569885,-6.436832,-33.697887,,,,,,,
,,,,,,,,,,,,,,,,6.247248,-75.565544,1498.447788,0.190000,311.132812,1527538429.044091,
1527538429.798599,0.037695,-1.348386,0.145837,0.002259,-0.003141,0.000665,0.008313,0.975369,-0.220419,0.008396,-0.002361,0.012701,44.940903,-6.961704,-34.676800,,,,,,,
,,,,,,,,,,,,,,,,6.247248,-75.565544,1498.449131,0.000000,311.132812,1527538430.011522,
1527538430.799079,0.031948,-1.348711,0.141358,-0.003157,-0.011656,0.001602,0.007036,0.975440,-0.220151,0.009276,-0.003669,0.007779,45.614105,-7.187260,-34.907070,,,,,,,
,,,,,,,,,,,,,,,,6.247248,-75.565544,1498.448887,0.000000,311.132812,1527538431.023213,
1527538431.799489,0.026461,-1.348751,0.139302,-0.001973,-0.000023,-0.002695,0.005827,0.975449,-0.220147,0.006502,-0.003647,0.011101,45.684540,-7.786808,-35.959072,,,,,,,
,,,,,,,,,,,,,,,,6.247248,-75.565544,1498.448887,0.000000,311.132812,1527538432.014441,
1527538432.799967,0.017331,-1.349663,0.133951,0.002206,0.001003,-0.000478,0.003801,0.975649,-0.219303,0.008406,-0.004565,0.015140,46.133377,-7.937138,-36.187588,,,,,,,
,,,,,,,,,,,,,,,,6.247248,-75.565544,1498.448765,0.000000,311.132812,1527538433.015198,
1527538433.800402,-0.013081,-1.345251,0.129365,0.002665,-0.068060,0.012528,-0.002925,0.974672,-0.223615,0.001369,-0.009661,0.012769,39.492828,-3.434315,-28.554852,,,,,,,
,,,,,,,,,,,,,,,,6.247248,-75.565544,1498.448643,0.000000,311.132812,1527538434.012914,
1527538434.800874,-0.049926,-1.351222,0.098597,-0.017561,0.039208,-0.016063,-0.010870,0.975990,-0.217543,0.081396,0.006798,0.057616,45.529068,-8.535755,-37.759853,,,,,,,
,,,,,,,,,,,,,,,,6.247248,-75.565544,1498.436314,0.000000,311.132812,1527538435.032944,
1527538435.801350,-0.018484,-1.356174,0.099989,0.007848,0.038038,-0.011184,-0.003936,0.977057,-0.212937,0.088333,0.007349,0.045304,48.583298,-11.087894,-39.587612,,,,,,,
,,,,,,,,,,,,,,,,6.247248,-75.565544,1498.420322,0.000000,311.132812,1527538436.015308,
1527538436.801816,-0.051720,-1.355932,0.129612,0.017880,-0.116130,-0.008376,-0.011022,0.977005,-0.212926,-0.019495,0.016235,0.013402,40.359879,-7.409351,-30.220867,,,,,,,
,,,,,,,,,,,,,,,,6.247248,-75.565544,1498.390537,0.000000,331.875000,1527538437.010887,
1527538437.802327,-0.037640,-1.355328,0.124168,0.014161,0.007120,-0.014178,-0.008045,0.976876,-0.213638,0.008976,0.007605,-0.006531,48.333923,-13.863422,-38.017803,,,,,,,
,,,,,,,,,,,,,,,,6.247256,-75.565549,1498.354038,0.360000,331.875000,1527538438.014190,
1527538438.802796,-0.028215,-1.360300,0.104815,0.012303,0.142140,-0.007135,-0.005894,0.977927,-0.208850,0.000477,-0.025260,0.065158,46.167542,-12.811573,-37.400021,,,,,,,
,,,,,,,,,,,,,,,,6.247260,-75.565551,1498.316319,0.360000,331.875000,1527538439.014139,
1527538439.803293,-0.003887,-1.357240,0.128180,0.016095,-0.166039,0.010920,-0.000824,0.977283,-0.211917,-0.004212,-0.024845,0.021563,50.768005,-10.039280,-41.175289,,,,,,,
,,,,,,,,,,,,,,,,6.247258,-75.565557,1498.214024,0.380000,299.179688,1527538440.015304,
1527538440.803761,0.069173,-1.350397,0.142331,0.004572,-0.045863,0.018834,0.015109,0.975810,-0.218070,0.091428,0.018147,0.075172,61.951355,-18.371296,-49.524395,,,,,,,
,,,,,,,,,,,,,,,,6.247257,-75.565563,1498.173740,0.380000,284.414062,1527538441.010757,
1527538441.804261,0.083393,-1.355646,0.201812,0.015336,-0.113997,0.005402,0.017782,0.976944,-0.212740,0.068308,-0.011399,0.082873,70.327454,-31.194569,-69.715088,,,,,,,
,,,,,,,,,,,,,,,,6.247256,-75.565568,1498.138828,0.380000,284.414062,1527538442.017200,
1527538442.804759,0.033772,-1.351698,0.252209,0.189916,-0.146351,0.048231,0.007338,0.976094,-0.217206,0.008760,0.045482,-0.088748,45.402710,-14.535999,-37.023983,,,,,,,
,,,,,,,,,,,,,,,,6.247257,-75.565583,1498.148594,0.380000,285.117188,1527538443.019523,
1527538443.805278,0.102467,-1.359729,0.253819,0.068767,-0.224457,0.066845,0.021428,0.977808,-0.208386,-0.023869,-0.021021,0.012463,52.938370,-11.087177,-49.743099,,,,,,,
,,,,,,,,,,,,,,,,6.247336,-75.565582,1498.300327,2.870000,348.750000,1527538444.025931,
1527538444.805742,0.145273,-1.367233,0.262508,-0.003459,0.090192,0.017171,0.029259,0.979352,-0.199990,0.029930,0.002780,0.044412,78.522873,-29.695087,-85.068710,,,,,,,
,,,,,,,,,,,,,,,,6.247400,-75.565577,1498.270542,2.870000,355.781250,1527538445.014683,
1527538445.806241,0.091811,-1.359296,0.295840,0.024094,-0.172599,-0.012392,0.019242,0.977717,-0.208994,0.009002,-0.008723,-0.012578,55.698303,-13.558994,-61.618603,,,,,,,
,,,,,,,,,,,,,,,,6.247451,-75.565574,1498.237949,2.870000,355.781250,1527538446.020830,
1527538446.806742,0.100899,-1.351122,0.289484,0.016887,0.060106,-0.032460,0.021946,0.975968,-0.216763,-0.016575,0.046279,-0.059177,44.477554,-8.908054,-41.053417,,,,,,,
,,,,,,,,,,,,,,,,6.247481,-75.565575,1498.237915,2.844661,-1.000000,1527538447.022617,
1527538447.807237,0.074568,-1.346353,0.218855,-0.015128,-0.006561,0.002202,0.016578,0.974918,-0.221903,0.014016,0.015316,-0.093541,46.243332,-12.662144,-36.425167,,,,,,,
,,,,,,,,,,,,,,,,6.247202,-75.565341,1498.226109,2.860000,135.000000,1527538448.016177,
1527538448.807723,0.309753,-1.348193,0.295679,0.101884,-0.244693,-0.353206,0.067283,0.975326,-0.210224,-0.023155,0.084244,-0.036526,57.107162,-33.804447,-73.529083,,,,,,,
,,,,,,,,,,,,,,,,6.247188,-75.565590,1498.362705,2.990000,201.093750,1527538449.008410,
1527538449.808222,0.090913,-1.356309,0.101053,0.022817,0.040027,-0.015131,0.019319,0.977086,-0.211913,0.014937,0.071987,-0.144028,39.791946,-3.138035,-21.731197,,,,,,,
,,,,,,,,,,,,,,,,6.247131,-75.565610,1498.197300,3.530000,200.742188,1527538450.045392,
1527538450.808689,0.106965,-1.345788,0.083951,0.003496,-0.069410,-0.023835,0.023814,0.974792,-0.221787,-0.048259,-0.031875,0.014832,51.483902,-4.644947,-31.266811,,,,,,,
,,,,,,,,,,,,,,,,6.246872,-75.565508,1498.142979,3.530000,174.023438,1527538451.023191,
1527538451.809199,0.121127,-1.350076,0.111682,0.020657,-0.032070,0.018145,0.026448,0.975740,-0.217282,-0.039021,-0.058549,-0.000965,49.345520,-9.217335,-32.238277,,,,,,,
,,,,,,,,,,,,,,,,6.246816,-75.565503,1498.499668,4.810000,173.671875,1527538452.012570,
1527538452.809695,0.231289,-1.365960,0.246886,0.002587,-0.127336,0.086342,0.046614,0.979094,-0.197935,-0.066405,0.029603,0.022322,73.541031,-23.697941,-69.418839,,,,,,,
,,,,,,,,,,,,,,,,6.246756,-75.565441,1498.479282,5.120000,160.664062,1527538453.023495,
1527538453.810134,0.219491,-1.361389,0.262863,-0.046650,-0.059455,0.020833,0.045249,0.978154,-0.202834,0.045708,0.008540,0.107940,137.747147,-62.649921,-143.840683,,,,,,,
,,,,,,,,,,,,,,,,6.246726,-75.565377,1498.964390,5.120000,150.468750,1527538454.016124,
1527538454.810634,0.079079,-1.363317,0.278101,-0.068682,-0.096671,0.002232,0.016268,0.978553,-0.205285,0.036268,0.074624,-0.046836,61.791519,-20.388813,-64.153336,,,,,,,
,,,,,,,,,,,,,,,,6.246562,-75.565507,1499.541660,5.120000,171.914062,1527538455.012299,
1527538455.811139,0.124604,-1.361974,0.254204,-0.004074,-0.213651,0.042602,0.025754,0.978276,-0.205618,0.051333,0.049572,-0.016413,74.033493,-27.746555,-73.182419,,,,,,,
,,,,,,,,,,,,,,,,6.246863,-75.564832,1496.296055,5.260000,123.046875,1527538456.030915,
1527538456.811609,0.082591,-1.344579,0.282554,-0.068357,0.271053,-0.003085,0.018498,0.974522,-0.223461,-0.087285,0.038845,0.015011,44.517303,-4.109150,-38.941708,,,,,,,
,,,,,,,,,,,,,,,,6.246835,-75.564792,1499.850742,5.290000,124.453125,1527538457.031829,
1527538457.812127,0.083516,-1.353878,0.266402,0.027144,0.062286,-0.016181,0.017948,0.976565,-0.214407,-0.049824,-0.020266,-0.005991,41.919678,-9.210789,-30.461285,,,,,,,
,,,,,,,,,,,,,,,,6.246807,-75.564754,1500.145908,5.290000,125.507812,1527538458.013277,
1527538458.812615,0.169474,-1.361668,0.249354,0.010955,-0.005481,0.024211,0.035004,0.978212,-0.204566,0.007247,0.018019,0.075599,90.554077,-35.253666,-91.991837,,,,,,,
,,,,,,,,,,,,,,,,6.246777,-75.564715,1500.397495,5.290000,125.859375,1527538459.009718,
1527538459.813132,0.110010,-1.351003,0.285437,-0.063752,-0.088330,-0.023323,0.023928,0.975943,-0.216634,0.003110,-0.028738,-0.019770,53.376190,-12.363956,-47.049358,,,,,,,
,,,,,,,,,,,,,,,,6.246747,-75.564675,1500.490269,5.340000,126.210938,1527538460.012360,
1527538460.813624,0.035186,-1.341743,0.245166,-0.001339,0.031903,0.051581,0.007985,0.973882,-0.226848,-0.092366,-0.069982,-0.022786,33.510239,-1.031361,-22.506954,,,,,,,
,,,,,,,,,,,,,,,,6.246719,-75.564636,1500.138340,5.370000,126.210938,1527538461.019927,
1527538461.814093,0.258476,-1.317933,0.328642,-0.187803,0.360268,-0.110966,0.063931,0.968200,-0.241806,0.045673,0.035325,0.013901,47.333939,-7.491566,-29.744869,,,,,,,
,,,,,,,,,,,,,,,,6.246505,-75.564523,1499.875767,7.270000,137.460938,1527538462.018220,
1527538462.814589,0.094829,-1.366642,0.197035,0.055725,-0.115004,0.050192,0.019189,0.979233,-0.201744,0.045738,0.069946,-0.007759,71.971161,-22.947605,-66.930984,,,,,,,
,,,,,,,,,,,,,,,,6.246456,-75.564477,1499.630405,7.290000,137.109375,1527538463.019382,
1527538463.815082,0.139215,-1.364947,0.191355,-0.014882,0.043191,-0.041729,0.028352,0.978888,-0.202335,0.147399,0.071039,0.033862,123.640793,-53.123142,-119.193115,,,,,,,
,,,,,,,,,,,,,,,,6.246408,-75.564433,1499.434971,7.280000,137.109375,1527538464.019477,
1527538464.815576,0.051894,-1.368000,0.243946,0.021846,-0.119184,0.040820,0.010442,0.979507,-0.201041,-0.022985,0.110398,0.022544,64.911407,-24.065800,-66.434357,,,,,,,
,,,,,,,,,,,,,,,,6.246360,-75.564388,1499.281406,7.280000,137.109375,1527538465.019737,
1527538465.816052,0.012897,-1.349211,0.213742,-0.029636,0.083613,-0.043284,0.002833,0.975550,-0.219670,-0.006114,0.057607,-0.029430,45.078445,-8.759037,-40.307262,,,,,,,
,,,,,,,,,,,,,,,,6.246309,-75.564345,1499.281372,7.218763,137.505655,1527538466.019613,
1527538466.816560,-0.000489,-1.337928,0.204365,0.002506,-0.063996,0.012401,-0.000113,0.973008,-0.230694,-0.087427,0.023177,0.037472,45.338333,-4.411350,-36.173199,,,,,,,
,,,,,,,,,,,,,,,,6.246260,-75.564301,1499.104614,7.190738,137.678325,1527538467.019741,
1527538467.817066,0.010735,-1.337194,0.187121,-0.000484,-0.050208,0.005872,0.002484,0.972839,-0.231400,-0.026929,-0.008193,0.028015,46.322342,-3.287907,-35.052288,,,,,,,
,,,,,,,,,,,,,,,,6.246205,-75.564263,1499.051392,7.177700,138.937354,1527538468.013318,
1527538468.817578,-0.016906,-1.337469,0.151646,-0.030404,0.178383,-0.001926,-0.003907,0.972902,-0.231111,0.034440,0.015196,-0.071868,46.198776,-8.987888,-34.840679,,,,,,,
,,,,,,,,,,,,,,,,6.246151,-75.564224,1499.010498,7.163193,139.477952,1527538469.020267,
1527538469.818105,-0.050438,-1.314732,0.164557,0.017886,-0.215864,0.055927,-0.012766,0.967394,-0.252886,-0.072592,-0.054995,-0.056441,37.819611,2.716854,-27.552761,,,,,,,
,,,,,,,,,,,,,,,,6.246098,-75.564184,1498.975220,7.148542,139.719911,1527538470.019562,
1527538470.818577,-0.019618,-1.327354,0.119557,0.017456,-0.006652,0.017933,-0.004727,0.970514,-0.240928,-0.056827,0.017523,0.001030,38.008652,-1.409229,-25.764385,,,,,,,
1527538471.819074,-0.093947,-1.319139,0.129446,0.033067,0.198235,-0.022860,-0.023353,0.968501,-0.247846,-0.124581,0.016499,0.015470,32.987183,-0.285221,-13.726437,,,,,,,
1527538472.819601,-0.039073,-1.328637,0.114423,-0.010920,0.074050,-0.026776,-0.009364,0.970823,-0.239542,-0.001424,-0.025769,-0.017645,44.130676,-5.087055,-32.341442,,,,,,,
1527538473.820074,-0.049292,-1.334563,0.124756,-0.096670,-0.092276,0.013274,-0.011528,0.972227,-0.233680,0.030083,-0.040677,0.033043,57.044540,-13.415318,-51.652660,,,,,,,
1527538474.820571,-0.073329,-1.340584,0.090001,-0.003261,-0.000225,-0.001784,-0.016712,0.973618,-0.227489,0.109378,0.027313,0.053402,82.659271,-28.572376,-88.769852,,,,,,,
1527538475.821071,-0.045414,-1.352916,0.152441,-0.052985,-0.093466,0.014369,-0.009809,0.976358,-0.215849,0.061720,-0.029336,0.062208,76.228973,-26.092319,-86.018646,,,,,,,
1527538476.821552,-0.026231,-1.354493,0.179345,0.041805,-0.031457,-0.058257,-0.005627,0.976698,-0.214452,0.067303,-0.011152,0.063909,78.916077,-18.596622,-82.793732,,,,,,,
1527538477.822008,0.057163,-1.359412,0.191975,0.073928,0.124966,-0.001278,0.011982,0.977741,-0.209377,0.083279,0.029842,0.050472,111.774399,-37.287281,-117.195465,,,,,,,
1527538478.822502,0.001731,-1.364337,0.251141,-0.021943,0.001112,0.023441,0.000355,0.978763,-0.204892,0.005840,0.024289,0.043424,58.685150,-14.987980,-59.618084,,,,,,,
1527538479.822967,0.108263,-1.364949,0.248835,-0.022875,0.079405,-0.053718,0.022072,0.978888,-0.203082,0.097831,0.115838,0.019733,111.886795,-42.009876,-122.233047,,,,,,,
1527538480.823449,0.019914,-1.367175,0.275003,-0.030787,0.101872,-0.032601,0.004024,0.979341,-0.202043,-0.004970,-0.042588,-0.049467,63.732147,-12.963245,-69.173355,,,,,,,
1527538481.823917,0.101424,-1.370760,0.292671,0.019585,-0.158739,-0.037027,0.020105,0.980059,-0.197550,0.005438,0.032621,0.025065,73.131775,-19.269413,-75.629898,,,,,,,
,,,,,,,,,,,,,,,,6.245559,-75.563728,1498.975220,-1.000000,-1.000000,1527538482.015292,
,,,,,,,,,,,,,,,,6.245558,-75.563727,1498.975220,-1.000000,-1.000000,1527538482.025093,
1527538482.824368,0.048246,-1.370953,0.297840,-0.020417,-0.049778,0.041813,0.009566,0.980098,-0.198131,0.026978,-0.020823,-0.106511,8.246170,-35.479515,100.560913,,,,,,,
1527538483.824881,0.076077,-1.360920,0.273026,-0.025968,0.013912,0.017999,0.015823,0.978057,-0.207586,-0.049194,0.041505,-0.051035,9.716721,-39.302925,94.466064,,,,,,,
1527538484.825342,0.097651,-1.368182,0.233490,-0.076842,-0.332261,0.044448,0.019603,0.979544,-0.200106,0.099126,-0.002005,-0.046262,35.363419,-49.966255,69.809875,,,,,,,
1527538485.825793,0.075201,-1.360032,0.243109,0.028241,0.253711,-0.027284,0.015706,0.977871,-0.208455,0.056514,-0.070599,0.025472,27.021713,-41.868446,90.888519,,,,,,,
1527538486.826269,0.134901,-1.362976,0.261031,-0.018519,-0.070119,0.007747,0.027728,0.978483,-0.204294,0.068235,-0.039915,0.003947,50.701645,-54.628716,64.065857,,,,,,,
1527538487.826720,0.025650,-1.354142,0.277346,-0.012603,-0.004305,-0.006181,0.005509,0.976622,-0.214732,-0.080979,0.039415,0.000239,-65.918823,-75.786194,33.117058,,,,,,,
1527538488.827187,0.090452,-1.292782,0.275904,-0.314660,0.215061,-0.162703,0.024780,0.961602,-0.273211,-0.069061,-0.091485,-0.015287,-67.318314,-52.631088,75.709740,,,,,,,
1527538489.827623,0.026828,-1.343389,0.205789,-0.000430,0.100660,-0.051049,0.006044,0.974254,-0.225221,-0.032884,-0.089946,0.006028,-65.939667,-59.594620,50.032677,,,,,,,
